{
"type": "FeatureCollection",
"name": "overpass_edmonton_normalized",
"crs": { "type": "name", "properties": { "name": "urn:ogc:def:crs:OGC:1.3:CRS84" } },
"features": [
{ "type": "Feature", "properties": { "id": "relation/1828833", "name": "via rail canadian/canadien: toronto => edmonton => vancouver", "address": null, "category": [ "night" ] }, "geometry": { "type": "MultiLineString", "coordinates": [ [ ], [ ], [ ], [ ], [ ], [ ], [ ], [ ], [ ], [ ] ] } },
{ "type": "Feature", "properties": { "id": "relation/10907387", "name": "via rail canadian/canadien: vancouver => edmonton => toronto", "address": null, "category": [ "night" ] }, "geometry": { "type": "MultiLineString", "coordinates": [ [ ], [ ], [ ], [ ], [ ], [ ], [ ], [ ], [ ], [ ] ] } },
{ "type": "Feature", "properties": { "id": "relation/1828833", "name": "via rail canadian/canadien: toronto => edmonton => vancouver", "address": null, "category": [ "night" ] }, "geometry": { "type": "Point", "coordinates": [ -101.1259284, 48.65689 ] } },
{ "type": "Feature", "properties": { "id": "relation/2219772", "name": "legislature plaza", "address": null, "category": [ "attraction" ] }, "geometry": { "type": "Point", "coordinates": [ -113.5065644, 53.5347457 ] } },
{ "type": "Feature", "properties": { "id": "relation/4510031", "name": "st. joseph seminary", "address": "9828, 84 street nw", "category": [ "educational_institution", "yes" ] }, "geometry": { "type": "Point", "coordinates": [ -113.4579557, 53.5386128 ] } },
{ "type": "Feature", "properties": { "id": "relation/4510032", "name": "catholic archdiocese of edmonton", "address": "8421, 101 avenue nw", "category": [ "religion", "yes" ] }, "geometry": { "type": "Point", "coordinates": [ -113.457878, 53.5407374 ] } },
{ "type": "Feature", "properties": { "id": "relation/6408899", "name": "advanced technology centre", "address": "9650, 20 avenue nw, edmonton, t6n 1g1", "category": [ "research", "yes" ] }, "geometry": { "type": "Point", "coordinates": [ -113.4779339, 53.4518742 ] } },
{ "type": "Feature", "properties": { "id": "relation/6488345", "name": "edmonton city centre", "address": "10025, 102 avenue nw, edmonton, t5j 2z2", "category": [ "mall", "retail" ] }, "geometry": { "type": "Point", "coordinates": [ -113.4940876, 53.5437208 ] } },
{ "type": "Feature", "properties": { "id": "relation/6554077", "name": "the annex", "address": "10120, 103 avenue nw, edmonton, t5j 3r6", "category": [ "company", "commercial" ] }, "geometry": { "type": "Point", "coordinates": [ -113.4950419, 53.5450207 ] } },
{ "type": "Feature", "properties": { "id": "relation/6741045", "name": "chateau lacombe hotel", "address": "10111, bellamy hill road nw, edmonton, t5j 1n7", "category": [ "hotel", "hotel" ] }, "geometry": { "type": "Point", "coordinates": [ -113.4938274, 53.5391093 ] } },
{ "type": "Feature", "properties": { "id": "relation/6768218", "name": "sir winston churchill square", "address": "9918, 102 avenue nw, edmonton, t5j 5h7", "category": [ "attraction" ] }, "geometry": { "type": "Point", "coordinates": [ -113.4899231, 53.5440452 ] } },
{ "type": "Feature", "properties": { "id": "relation/7732149", "name": "harbour seal", "address": null, "category": [ "attraction" ] }, "geometry": { "type": "Point", "coordinates": [ -113.5559464, 53.5101955 ] } },
{ "type": "Feature", "properties": { "id": "relation/7793716", "name": "park memorial", "address": null, "category": [ "funeral_directors" ] }, "geometry": { "type": "Point", "coordinates": [ -113.4927324, 53.5584282 ] } },
{ "type": "Feature", "properties": { "id": "relation/7828192", "name": "edmonton northlands", "address": null, "category": [ "attraction" ] }, "geometry": { "type": "Point", "coordinates": [ -113.4569042, 53.5692906 ] } },
{ "type": "Feature", "properties": { "id": "relation/8783375", "name": "towne motel", "address": "4403, 118 avenue nw", "category": [ "motel", "yes" ] }, "geometry": { "type": "Point", "coordinates": [ -113.4096401, 53.570126 ] } },
{ "type": "Feature", "properties": { "id": "relation/8971759", "name": "bulldog self storage", "address": null, "category": [ "storage_rental" ] }, "geometry": { "type": "Point", "coordinates": [ -113.5768971, 53.5623877 ] } },
{ "type": "Feature", "properties": { "id": "relation/10907387", "name": "via rail canadian/canadien: vancouver => edmonton => toronto", "address": null, "category": [ "night" ] }, "geometry": { "type": "Point", "coordinates": [ -101.1259284, 48.65689 ] } },
{ "type": "Feature", "properties": { "id": "relation/16848259", "name": "north town centre", "address": "9450;9630, 137 avenue nw, edmonton, t5e 6c2;t5e 6h7", "category": [ "mall", "retail" ] }, "geometry": { "type": "Point", "coordinates": [ -113.4883623, 53.6005278 ] } },
{ "type": "Feature", "properties": { "id": "relation/17174557", "name": "the sandman signature edmonton downtown hotel", "address": "10235, 101 street nw, edmonton, t5j 3e8", "category": [ "hotel", "hotel", "sandman" ] }, "geometry": { "type": "Point", "coordinates": [ -113.4930071, 53.544894 ] } },
{ "type": "Feature", "properties": { "id": "relation/17244896", "name": "mill woods main street", "address": null, "category": [ "mall", "retail" ] }, "geometry": { "type": "Point", "coordinates": [ -113.4314844, 53.4599713 ] } },
{ "type": "Feature", "properties": { "id": "relation/17654850", "name": "flaman sales & rentals edmonton", "address": null, "category": [ "trailer", "yes" ] }, "geometry": { "type": "Point", "coordinates": [ -113.4788365, 53.5824657 ] } },
{ "type": "Feature", "properties": { "id": "relation/17687765", "name": "unity square", "address": null, "category": [ "mall", "yes;retail" ] }, "geometry": { "type": "Point", "coordinates": [ -113.5241112, 53.5471333 ] } },
{ "type": "Feature", "properties": { "id": "relation/17730841", "name": "south edmonton common", "address": null, "category": [ "mall", "retail" ] }, "geometry": { "type": "Point", "coordinates": [ -113.4849816, 53.4477744 ] } },
{ "type": "Feature", "properties": { "id": "way/23238874", "name": "kingsway mall", "address": "109 street nw, edmonton, t5g 3a6", "category": [ "mall", "retail" ] }, "geometry": { "type": "Point", "coordinates": [ -113.5055699, 53.5621974 ] } },
{ "type": "Feature", "properties": { "id": "way/23239645", "name": "meadowlark health and shopping centre", "address": null, "category": [ "mall", "retail" ] }, "geometry": { "type": "Point", "coordinates": [ -113.5935729, 53.5210658 ] } },
{ "type": "Feature", "properties": { "id": "way/23239655", "name": "mill woods town centre", "address": "2331, 66 street nw, edmonton, t6k 4b5", "category": [ "mall", "retail" ] }, "geometry": { "type": "Point", "coordinates": [ -113.4290691, 53.4556119 ] } },
{ "type": "Feature", "properties": { "id": "way/23239693", "name": "bonnie doon shopping centre", "address": "8330, 82 street nw, edmonton, t6c 4e3", "category": [ "mall", "retail" ] }, "geometry": { "type": "Point", "coordinates": [ -113.457218, 53.5208994 ] } },
{ "type": "Feature", "properties": { "id": "way/23239712", "name": "londonderry mall", "address": "1, londonderry mall nw, edmonton, t5c 3c8", "category": [ "mall", "retail" ] }, "geometry": { "type": "Point", "coordinates": [ -113.4463444, 53.6025938 ] } },
{ "type": "Feature", "properties": { "id": "way/23240557", "name": "capilano mall", "address": null, "category": [ "mall", "mall" ] }, "geometry": { "type": "Point", "coordinates": [ -113.4215197, 53.5390989 ] } },
{ "type": "Feature", "properties": { "id": "way/25331958", "name": "105 street nw", "address": null, "category": [ "driveway" ] }, "geometry": { "type": "Point", "coordinates": [ -113.499012, 53.4418296 ] } },
{ "type": "Feature", "properties": { "id": "way/25404282", "name": "110 avenue nw", "address": null, "category": [ "driveway" ] }, "geometry": { "type": "Point", "coordinates": [ -113.4164466, 53.5647945 ] } },
{ "type": "Feature", "properties": { "id": "way/25491126", "name": "rundle park road nw", "address": null, "category": [ "driveway" ] }, "geometry": { "type": "Point", "coordinates": [ -113.3797932, 53.5687817 ] } },
{ "type": "Feature", "properties": { "id": "way/25794555", "name": "fort edmonton park", "address": "7000, 143 street nw, edmonton, t6h 4p3", "category": [ "museum" ] }, "geometry": { "type": "Point", "coordinates": [ -113.5785284, 53.5014448 ] } },
{ "type": "Feature", "properties": { "id": "way/27695872", "name": "boston pizza", "address": null, "category": [ "restaurant", "retail", "boston pizza" ] }, "geometry": { "type": "Point", "coordinates": [ -113.5519781, 53.5624006 ] } },
{ "type": "Feature", "properties": { "id": "way/27695874", "name": "mcdonald's", "address": null, "category": [ "fast_food", "retail", "mcdonald's" ] }, "geometry": { "type": "Point", "coordinates": [ -113.5520652, 53.5615382 ] } },
{ "type": "Feature", "properties": { "id": "way/27697119", "name": "telus world of science", "address": "11211, 142 street nw, edmonton, t5m 4a1", "category": [ "museum", "public" ] }, "geometry": { "type": "Point", "coordinates": [ -113.5640488, 53.5612177 ] } },
{ "type": "Feature", "properties": { "id": "way/28584147", "name": "119 avenue nw", "address": null, "category": [ "alley" ] }, "geometry": { "type": "Point", "coordinates": [ -113.431731, 53.5719292 ] } },
{ "type": "Feature", "properties": { "id": "way/28589408", "name": "river point north-west", "address": null, "category": [ "driveway" ] }, "geometry": { "type": "Point", "coordinates": [ -113.3772606, 53.5995866 ] } },
{ "type": "Feature", "properties": { "id": "way/28865575", "name": "pacific rim mall", "address": null, "category": [ "mall", "commercial" ] }, "geometry": { "type": "Point", "coordinates": [ -113.4886511, 53.5491519 ] } },
{ "type": "Feature", "properties": { "id": "way/28866206", "name": "ikea", "address": "1311, gateway boulevard nw, edmonton, t6n 1m3", "category": [ "furniture", "commercial", "ikea" ] }, "geometry": { "type": "Point", "coordinates": [ -113.4892119, 53.443539 ] } },
{ "type": "Feature", "properties": { "id": "way/31674967", "name": "85 avenue nw", "address": null, "category": [ "parking_aisle" ] }, "geometry": { "type": "Point", "coordinates": [ -113.6125349, 53.5185893 ] } },
{ "type": "Feature", "properties": { "id": "way/31676823", "name": "west point wynd nw", "address": null, "category": [ "driveway" ] }, "geometry": { "type": "Point", "coordinates": [ -113.6078521, 53.5042229 ] } },
{ "type": "Feature", "properties": { "id": "way/31677245", "name": "103 street nw", "address": null, "category": [ "alley" ] }, "geometry": { "type": "Point", "coordinates": [ -113.5008452, 53.6158656 ] } },
{ "type": "Feature", "properties": { "id": "way/31684234", "name": "west point wynd nw", "address": null, "category": [ "driveway" ] }, "geometry": { "type": "Point", "coordinates": [ -113.6084183, 53.5048147 ] } },
{ "type": "Feature", "properties": { "id": "way/31684286", "name": "callingwood place nw", "address": null, "category": [ "driveway" ] }, "geometry": { "type": "Point", "coordinates": [ -113.6171807, 53.4998169 ] } },
{ "type": "Feature", "properties": { "id": "way/31684744", "name": "castle crescent nw", "address": null, "category": [ "driveway" ] }, "geometry": { "type": "Point", "coordinates": [ -113.5050006, 53.6298199 ] } },
{ "type": "Feature", "properties": { "id": "way/31686164", "name": "west point wynd nw", "address": null, "category": [ "driveway" ] }, "geometry": { "type": "Point", "coordinates": [ -113.607526, 53.5041943 ] } },
{ "type": "Feature", "properties": { "id": "way/31688628", "name": "west point wynd nw", "address": null, "category": [ "driveway" ] }, "geometry": { "type": "Point", "coordinates": [ -113.6082186, 53.5044622 ] } },
{ "type": "Feature", "properties": { "id": "way/31688723", "name": "west point wynd nw", "address": null, "category": [ "driveway" ] }, "geometry": { "type": "Point", "coordinates": [ -113.6084863, 53.5047888 ] } },
{ "type": "Feature", "properties": { "id": "way/31707106", "name": "callingwood place nw", "address": null, "category": [ "driveway" ] }, "geometry": { "type": "Point", "coordinates": [ -113.6164538, 53.4993492 ] } },
{ "type": "Feature", "properties": { "id": "way/31708095", "name": "callingwood place nw", "address": null, "category": [ "driveway" ] }, "geometry": { "type": "Point", "coordinates": [ -113.6180308, 53.4987571 ] } },
{ "type": "Feature", "properties": { "id": "way/31708210", "name": "callingwood place nw", "address": null, "category": [ "driveway" ] }, "geometry": { "type": "Point", "coordinates": [ -113.6164538, 53.4988591 ] } },
{ "type": "Feature", "properties": { "id": "way/31708805", "name": "callingwood place nw", "address": null, "category": [ "driveway" ] }, "geometry": { "type": "Point", "coordinates": [ -113.6172316, 53.499107 ] } },
{ "type": "Feature", "properties": { "id": "way/31709802", "name": "callingwood place nw", "address": null, "category": [ "driveway" ] }, "geometry": { "type": "Point", "coordinates": [ -113.6171363, 53.4983355 ] } },
{ "type": "Feature", "properties": { "id": "way/31710876", "name": "callingwood place nw", "address": null, "category": [ "driveway" ] }, "geometry": { "type": "Point", "coordinates": [ -113.6180338, 53.4994179 ] } },
{ "type": "Feature", "properties": { "id": "way/31849448", "name": "27 street nw", "address": null, "category": [ "driveway" ] }, "geometry": { "type": "Point", "coordinates": [ -113.3820439, 53.4999432 ] } },
{ "type": "Feature", "properties": { "id": "way/31881607", "name": "85a street nw", "address": null, "category": [ "alley" ] }, "geometry": { "type": "Point", "coordinates": [ -113.4699479, 53.5939552 ] } },
{ "type": "Feature", "properties": { "id": "way/31881895", "name": "133 avenue nw", "address": null, "category": [ "alley" ] }, "geometry": { "type": "Point", "coordinates": [ -113.4691064, 53.5939162 ] } },
{ "type": "Feature", "properties": { "id": "way/31882095", "name": "83a street nw", "address": null, "category": [ "alley" ] }, "geometry": { "type": "Point", "coordinates": [ -113.468281, 53.593354 ] } },
{ "type": "Feature", "properties": { "id": "way/37183381", "name": "victoria golf clubhouse", "address": null, "category": [ "sports", "sports_centre" ] }, "geometry": { "type": "Point", "coordinates": [ -113.5286634, 53.5388161 ] } },
{ "type": "Feature", "properties": { "id": "way/37684092", "name": "silton industrial lead", "address": null, "category": [ "spur" ] }, "geometry": { "type": "Point", "coordinates": [ -113.5985673, 53.562539 ] } },
{ "type": "Feature", "properties": { "id": "way/37684093", "name": "silton industrial lead", "address": null, "category": [ "spur" ] }, "geometry": { "type": "Point", "coordinates": [ -113.6035703, 53.576683 ] } },
{ "type": "Feature", "properties": { "id": "way/37684094", "name": "silton industrial lead", "address": null, "category": [ "spur" ] }, "geometry": { "type": "Point", "coordinates": [ -113.6043706, 53.5760027 ] } },
{ "type": "Feature", "properties": { "id": "way/37686191", "name": "cn", "address": null, "category": [ "spur" ] }, "geometry": { "type": "Point", "coordinates": [ -113.6312908, 53.5574889 ] } },
{ "type": "Feature", "properties": { "id": "way/37688271", "name": "cnr", "address": null, "category": [ "spur" ] }, "geometry": { "type": "Point", "coordinates": [ -113.6083777, 53.5847099 ] } },
{ "type": "Feature", "properties": { "id": "way/37805641", "name": "dominion industrial branch", "address": null, "category": [ "spur" ] }, "geometry": { "type": "Point", "coordinates": [ -113.571621, 53.5727235 ] } },
{ "type": "Feature", "properties": { "id": "way/37805644", "name": "bonaventure lead", "address": null, "category": [ "spur" ] }, "geometry": { "type": "Point", "coordinates": [ -113.568113, 53.5896489 ] } },
{ "type": "Feature", "properties": { "id": "way/37806082", "name": "cnr", "address": null, "category": [ "spur" ] }, "geometry": { "type": "Point", "coordinates": [ -113.5747049, 53.5799891 ] } },
{ "type": "Feature", "properties": { "id": "way/37833417", "name": "cnr", "address": null, "category": [ "siding" ] }, "geometry": { "type": "Point", "coordinates": [ -113.4620312, 53.5676749 ] } },
{ "type": "Feature", "properties": { "id": "way/37889539", "name": "mcdonald's", "address": null, "category": [ "fast_food", "retail", "mcdonald's" ] }, "geometry": { "type": "Point", "coordinates": [ -113.4177744, 53.5392621 ] } },
{ "type": "Feature", "properties": { "id": "way/38071200", "name": "costco", "address": null, "category": [ "wholesale", "retail", "costco" ] }, "geometry": { "type": "Point", "coordinates": [ -113.5799573, 53.5790122 ] } },
{ "type": "Feature", "properties": { "id": "way/38080096", "name": "burger baron", "address": null, "category": [ "fast_food", "retail" ] }, "geometry": { "type": "Point", "coordinates": [ -113.5661904, 53.5708169 ] } },
{ "type": "Feature", "properties": { "id": "way/38080098", "name": "sir donair & pizza", "address": "14210, 118 avenue nw, edmonton, t5l2m5", "category": [ "fast_food", "yes" ] }, "geometry": { "type": "Point", "coordinates": [ -113.5666891, 53.5707627 ] } },
{ "type": "Feature", "properties": { "id": "way/38080100", "name": "wendy's", "address": null, "category": [ "fast_food", "retail", "wendy's" ] }, "geometry": { "type": "Point", "coordinates": [ -113.5664992, 53.5700071 ] } },
{ "type": "Feature", "properties": { "id": "way/42479116", "name": "real canadian superstore", "address": "9711, 23 avenue nw, edmonton, t6n 1k7", "category": [ "supermarket", "retail", "real canadian superstore" ] }, "geometry": { "type": "Point", "coordinates": [ -113.4812324, 53.4522444 ] } },
{ "type": "Feature", "properties": { "id": "way/42479227", "name": "best buy", "address": "9931, 19 avenue nw, edmonton, t6n 1m4", "category": [ "electronics", "retail", "best buy" ] }, "geometry": { "type": "Point", "coordinates": [ -113.4881001, 53.4467 ] } },
{ "type": "Feature", "properties": { "id": "way/42504889", "name": "a&w", "address": "2254, 98 street nw", "category": [ "fast_food", "retail", "a&w" ] }, "geometry": { "type": "Point", "coordinates": [ -113.483597, 53.453368 ] } },
{ "type": "Feature", "properties": { "id": "way/42504910", "name": "boston pizza", "address": null, "category": [ "restaurant", "retail", "boston pizza" ] }, "geometry": { "type": "Point", "coordinates": [ -113.4841181, 53.4530515 ] } },
{ "type": "Feature", "properties": { "id": "way/42504933", "name": "mcdonald's", "address": null, "category": [ "fast_food", "retail", "mcdonald's" ] }, "geometry": { "type": "Point", "coordinates": [ -113.4865539, 53.4531617 ] } },
{ "type": "Feature", "properties": { "id": "way/42505029", "name": "joey", "address": null, "category": [ "restaurant", "retail", "joey" ] }, "geometry": { "type": "Point", "coordinates": [ -113.4856245, 53.4474104 ] } },
{ "type": "Feature", "properties": { "id": "way/42778639", "name": "sobeys", "address": "5011, 23 avenue nw, edmonton, t6l 7g5", "category": [ "supermarket", "yes", "sobeys" ] }, "geometry": { "type": "Point", "coordinates": [ -113.4215523, 53.453614 ] } },
{ "type": "Feature", "properties": { "id": "way/42782487", "name": "alberta legislature building", "address": "10800, 97 avenue nw, edmonton, t5k 2b6", "category": [ "government", "government" ] }, "geometry": { "type": "Point", "coordinates": [ -113.5066208, 53.5335623 ] } },
{ "type": "Feature", "properties": { "id": "way/42782571", "name": "legislature annex", "address": "9718, 107 street nw, edmonton, t5k 1e4", "category": [ "government" ] }, "geometry": { "type": "Point", "coordinates": [ -113.5053164, 53.5347973 ] } },
{ "type": "Feature", "properties": { "id": "way/43532091", "name": "travelodge", "address": "18320, stony plain road nw, edmonton, t5s 1a7", "category": [ "hotel", "yes", "travelodge" ] }, "geometry": { "type": "Point", "coordinates": [ -113.6388864, 53.5421906 ] } },
{ "type": "Feature", "properties": { "id": "way/43532099", "name": "smitty's", "address": null, "category": [ "restaurant", "retail", "smitty's" ] }, "geometry": { "type": "Point", "coordinates": [ -113.6391731, 53.5420407 ] } },
{ "type": "Feature", "properties": { "id": "way/43532198", "name": "carl's jr.", "address": null, "category": [ "fast_food", "retail", "carl's jr." ] }, "geometry": { "type": "Point", "coordinates": [ -113.6162376, 53.5407246 ] } },
{ "type": "Feature", "properties": { "id": "way/43532201", "name": "burger king", "address": null, "category": [ "fast_food", "retail", "burger king" ] }, "geometry": { "type": "Point", "coordinates": [ -113.6187269, 53.540911 ] } },
{ "type": "Feature", "properties": { "id": "way/43532233", "name": "real canadian superstore", "address": null, "category": [ "supermarket", "retail", "real canadian superstore" ] }, "geometry": { "type": "Point", "coordinates": [ -113.6211903, 53.5400006 ] } },
{ "type": "Feature", "properties": { "id": "way/44164795", "name": "courtyard marriott edmonton", "address": "1, thornton court nw, edmonton, t5j 2e7", "category": [ "hotel", "hotel", "courtyard" ] }, "geometry": { "type": "Point", "coordinates": [ -113.4878255, 53.5405863 ] } },
{ "type": "Feature", "properties": { "id": "way/44164913", "name": "mcdonald's", "address": null, "category": [ "fast_food", "retail", "mcdonald's" ] }, "geometry": { "type": "Point", "coordinates": [ -113.4417568, 53.5177303 ] } },
{ "type": "Feature", "properties": { "id": "way/45403299", "name": "five guys", "address": "10010, 171 street nw, edmonton, t5s 1b5", "category": [ "fast_food", "commercial", "five guys" ] }, "geometry": { "type": "Point", "coordinates": [ -113.6177335, 53.5396939 ] } },
{ "type": "Feature", "properties": { "id": "way/45403301", "name": "real canadian liquorstore", "address": null, "category": [ "alcohol", "retail" ] }, "geometry": { "type": "Point", "coordinates": [ -113.6182437, 53.5402068 ] } },
{ "type": "Feature", "properties": { "id": "way/46476713", "name": "shell select", "address": null, "category": [ "convenience", "yes", "shell select" ] }, "geometry": { "type": "Point", "coordinates": [ -113.6154661, 53.5444741 ] } },
{ "type": "Feature", "properties": { "id": "way/46889745", "name": "freshco", "address": null, "category": [ "supermarket", "retail", "freshco" ] }, "geometry": { "type": "Point", "coordinates": [ -113.4662798, 53.5715688 ] } },
{ "type": "Feature", "properties": { "id": "way/49521465", "name": "walmart", "address": "13703 40 st nw, edmonton, t5y 3b5", "category": [ "department_store", "walmart" ] }, "geometry": { "type": "Point", "coordinates": [ -113.4013326, 53.6002548 ] } },
{ "type": "Feature", "properties": { "id": "way/49521476", "name": "real canadian superstore", "address": "4950, 137 avenue nw, edmonton, t5y 2v4", "category": [ "supermarket", "retail", "real canadian superstore" ] }, "geometry": { "type": "Point", "coordinates": [ -113.4114546, 53.5993134 ] } },
{ "type": "Feature", "properties": { "id": "way/49522096", "name": "costco", "address": null, "category": [ "wholesale", "warehouse", "costco" ] }, "geometry": { "type": "Point", "coordinates": [ -113.4168799, 53.5958207 ] } },
{ "type": "Feature", "properties": { "id": "way/49522289", "name": "o2 bar & grill", "address": null, "category": [ "bar", "retail" ] }, "geometry": { "type": "Point", "coordinates": [ -113.4187981, 53.5904556 ] } },
{ "type": "Feature", "properties": { "id": "way/50621140", "name": "edmonton valley zoo", "address": "13315, buena vista road nw, edmonton, t5j 2r7", "category": [ "zoo" ] }, "geometry": { "type": "Point", "coordinates": [ -113.5565645, 53.5109781 ] } },
{ "type": "Feature", "properties": { "id": "way/51056463", "name": "sobeys liquor", "address": "8204, 109 street north-west, edmonton, t6g 1c8", "category": [ "alcohol", "retail", "sobeys" ] }, "geometry": { "type": "Point", "coordinates": [ -113.5125066, 53.5184658 ] } },
{ "type": "Feature", "properties": { "id": "way/51056465", "name": "safeway", "address": "10930, 82 avenue north-west, edmonton, t6g 0s8", "category": [ "supermarket", "yes", "safeway" ] }, "geometry": { "type": "Point", "coordinates": [ -113.5135254, 53.5187943 ] } },
{ "type": "Feature", "properties": { "id": "way/51255740", "name": "lister centre", "address": null, "category": [ "yes", "yes" ] }, "geometry": { "type": "Point", "coordinates": [ -113.5305843, 53.521933 ] } },
{ "type": "Feature", "properties": { "id": "way/51317585", "name": "running room", "address": null, "category": [ "sports", "retail", "running room" ] }, "geometry": { "type": "Point", "coordinates": [ -113.5115405, 53.5217373 ] } },
{ "type": "Feature", "properties": { "id": "way/51335535", "name": "mcdonald's", "address": null, "category": [ "fast_food", "retail", "mcdonald's" ] }, "geometry": { "type": "Point", "coordinates": [ -113.5115953, 53.5207607 ] } },
{ "type": "Feature", "properties": { "id": "way/51547903", "name": "don wheaton chevrolet", "address": null, "category": [ "car", "yes" ] }, "geometry": { "type": "Point", "coordinates": [ -113.5075428, 53.5177838 ] } },
{ "type": "Feature", "properties": { "id": "way/51655163", "name": "chicago deep dish pizza", "address": "8114, 104 street nw", "category": [ "fast_food", "retail" ] }, "geometry": { "type": "Point", "coordinates": [ -113.4979939, 53.5174936 ] } },
{ "type": "Feature", "properties": { "id": "way/51776569", "name": "mcdonald's", "address": null, "category": [ "fast_food", "retail", "mcdonald's" ] }, "geometry": { "type": "Point", "coordinates": [ -113.4950534, 53.5155173 ] } },
{ "type": "Feature", "properties": { "id": "way/54276963", "name": "prince of wales armouries", "address": "10440, 108 avenue nw, edmonton", "category": [ "museum", "yes" ] }, "geometry": { "type": "Point", "coordinates": [ -113.5001757, 53.5540879 ] } },
{ "type": "Feature", "properties": { "id": "way/56463605", "name": "tim hortons", "address": null, "category": [ "cafe", "retail", "tim hortons" ] }, "geometry": { "type": "Point", "coordinates": [ -113.515553, 53.4886445 ] } },
{ "type": "Feature", "properties": { "id": "way/61157041", "name": "the home depot", "address": null, "category": [ "doityourself", "retail", "the home depot" ] }, "geometry": { "type": "Point", "coordinates": [ -113.496269, 53.5037828 ] } },
{ "type": "Feature", "properties": { "id": "way/61157043", "name": "staples", "address": "6510, gateway boulevard north-west", "category": [ "stationery", "retail", "staples" ] }, "geometry": { "type": "Point", "coordinates": [ -113.4953931, 53.5019585 ] } },
{ "type": "Feature", "properties": { "id": "way/61344350", "name": "kingsway business centre", "address": null, "category": [ "yes", "yes" ] }, "geometry": { "type": "Point", "coordinates": [ -113.5222189, 53.5675212 ] } },
{ "type": "Feature", "properties": { "id": "way/64842091", "name": "west edmonton mall inn", "address": null, "category": [ "hotel", "hotel" ] }, "geometry": { "type": "Point", "coordinates": [ -113.6241119, 53.5254137 ] } },
{ "type": "Feature", "properties": { "id": "way/70647318", "name": "sawmill prime rib & steak house", "address": "4810, calgary trail nw", "category": [ "restaurant", "retail" ] }, "geometry": { "type": "Point", "coordinates": [ -113.495669, 53.4863785 ] } },
{ "type": "Feature", "properties": { "id": "way/70647322", "name": "real canadian superstore", "address": "4821, calgary trail nw, t6h 5w8", "category": [ "supermarket", "retail", "real canadian superstore" ] }, "geometry": { "type": "Point", "coordinates": [ -113.4934996, 53.486133 ] } },
{ "type": "Feature", "properties": { "id": "way/70647323", "name": "costco", "address": "2616, 91 street nw, edmonton, t6n 1n2", "category": [ "wholesale", "warehouse", "costco" ] }, "geometry": { "type": "Point", "coordinates": [ -113.4697692, 53.455737 ] } },
{ "type": "Feature", "properties": { "id": "way/70647327", "name": "boston pizza", "address": "4804, calgary trail nw", "category": [ "restaurant", "retail", "boston pizza" ] }, "geometry": { "type": "Point", "coordinates": [ -113.4956437, 53.4857377 ] } },
{ "type": "Feature", "properties": { "id": "way/72844042", "name": "mud sweat and gears (edmonton south)", "address": "4790, calgary trail nw, edmonton, t6h 5z4", "category": [ "bicycle", "retail" ] }, "geometry": { "type": "Point", "coordinates": [ -113.4958001, 53.4850907 ] } },
{ "type": "Feature", "properties": { "id": "way/75490170", "name": "a&w", "address": null, "category": [ "fast_food", "yes", "a&w" ] }, "geometry": { "type": "Point", "coordinates": [ -113.4213463, 53.4559488 ] } },
{ "type": "Feature", "properties": { "id": "way/76965817", "name": "comfort inn & suites", "address": null, "category": [ "hotel", "hotel", "comfort inn & suites" ] }, "geometry": { "type": "Point", "coordinates": [ -113.5005884, 53.5385695 ] } },
{ "type": "Feature", "properties": { "id": "way/77204699", "name": "guru fine indian cuisine", "address": "17021, 100 avenue nw, edmonton", "category": [ "restaurant", "yes" ] }, "geometry": { "type": "Point", "coordinates": [ -113.6164893, 53.5389596 ] } },
{ "type": "Feature", "properties": { "id": "way/78286678", "name": "red lobster", "address": "4111, calgary trail nw, edmonton", "category": [ "restaurant", "retail", "red lobster" ] }, "geometry": { "type": "Point", "coordinates": [ -113.4946333, 53.4774884 ] } },
{ "type": "Feature", "properties": { "id": "way/78286683", "name": "japanese village", "address": "3975, calgary trail nw", "category": [ "restaurant", "retail" ] }, "geometry": { "type": "Point", "coordinates": [ -113.4949538, 53.476878 ] } },
{ "type": "Feature", "properties": { "id": "way/78286694", "name": "beijing beijing restaurant", "address": "700-3803, calgary trail nw", "category": [ "restaurant", "retail" ] }, "geometry": { "type": "Point", "coordinates": [ -113.4951947, 53.4723279 ] } },
{ "type": "Feature", "properties": { "id": "way/78384331", "name": "triple o's", "address": "10329, 34 avenue nw, edmonton", "category": [ "fast_food", "retail", "mucho burrito" ] }, "geometry": { "type": "Point", "coordinates": [ -113.4945596, 53.4673155 ] } },
{ "type": "Feature", "properties": { "id": "way/78384333", "name": "kfc", "address": "10321, 34 avenue nw, edmonton", "category": [ "fast_food", "retail", "kfc" ] }, "geometry": { "type": "Point", "coordinates": [ -113.4933334, 53.4672098 ] } },
{ "type": "Feature", "properties": { "id": "way/81061342", "name": "tim hortons", "address": "10310, 31 avenue nw", "category": [ "cafe", "yes", "tim hortons" ] }, "geometry": { "type": "Point", "coordinates": [ -113.4932196, 53.4637644 ] } },
{ "type": "Feature", "properties": { "id": "way/82442624", "name": "petsmart", "address": "13680, 50 st nw, edmonton, t5a 4y3", "category": [ "pet", "yes", "petsmart" ] }, "geometry": { "type": "Point", "coordinates": [ -113.4144441, 53.5963735 ] } },
{ "type": "Feature", "properties": { "id": "way/82442635", "name": "the real canadian liquorstore", "address": null, "category": [ "alcohol", "yes" ] }, "geometry": { "type": "Point", "coordinates": [ -113.4098044, 53.5984974 ] } },
{ "type": "Feature", "properties": { "id": "way/82442646", "name": "the home depot", "address": "13304, 50", "category": [ "doityourself", "retail", "the home depot" ] }, "geometry": { "type": "Point", "coordinates": [ -113.417102, 53.5946185 ] } },
{ "type": "Feature", "properties": { "id": "way/83591945", "name": "new asian village", "address": null, "category": [ "restaurant", "yes" ] }, "geometry": { "type": "Point", "coordinates": [ -113.6225032, 53.5383214 ] } },
{ "type": "Feature", "properties": { "id": "way/83591981", "name": "the home depot", "address": "17404, 99th avenue northwest, edmonton, t5t 5l5", "category": [ "doityourself", "yes", "the home depot" ] }, "geometry": { "type": "Point", "coordinates": [ -113.621177, 53.536894 ] } },
{ "type": "Feature", "properties": { "id": "way/83800980", "name": "red lobster", "address": null, "category": [ "restaurant", "yes", "red lobster" ] }, "geometry": { "type": "Point", "coordinates": [ -113.616029, 53.5417779 ] } },
{ "type": "Feature", "properties": { "id": "way/83800981", "name": "olive garden", "address": null, "category": [ "restaurant", "yes", "olive garden" ] }, "geometry": { "type": "Point", "coordinates": [ -113.6158151, 53.5425051 ] } },
{ "type": "Feature", "properties": { "id": "way/83824653", "name": "aladdin motel", "address": null, "category": [ "hotel", "retail" ] }, "geometry": { "type": "Point", "coordinates": [ -113.5882675, 53.5583261 ] } },
{ "type": "Feature", "properties": { "id": "way/84084175", "name": "john e. brownlee building", "address": "10365, 97 street nw, edmonton, t5j 5a6", "category": [ "government", "service" ] }, "geometry": { "type": "Point", "coordinates": [ -113.4862998, 53.5473381 ] } },
{ "type": "Feature", "properties": { "id": "way/85780849", "name": "vienna bakery", "address": "10207, 63 avenue nw", "category": [ "bakery", "retail" ] }, "geometry": { "type": "Point", "coordinates": [ -113.4921606, 53.4994703 ] } },
{ "type": "Feature", "properties": { "id": "way/90757295", "name": "manulife place", "address": "10180, 101 street nw", "category": [ "commercial", "office" ] }, "geometry": { "type": "Point", "coordinates": [ -113.4943985, 53.5426512 ] } },
{ "type": "Feature", "properties": { "id": "way/90757308", "name": "the shops at commerce place", "address": "10150, jasper avenue nw, edmonton", "category": [ "mall", "retail" ] }, "geometry": { "type": "Point", "coordinates": [ -113.4946732, 53.5417171 ] } },
{ "type": "Feature", "properties": { "id": "way/90757323", "name": "hsbc place", "address": "10250, 101 street nw, edmonton", "category": [ "yes", "commercial" ] }, "geometry": { "type": "Point", "coordinates": [ -113.4942161, 53.5440593 ] } },
{ "type": "Feature", "properties": { "id": "way/92507656", "name": "real canadian liquorstore", "address": null, "category": [ "alcohol", "retail" ] }, "geometry": { "type": "Point", "coordinates": [ -113.535369, 53.6003288 ] } },
{ "type": "Feature", "properties": { "id": "way/92507659", "name": "the captain's boil", "address": null, "category": [ "restaurant", "retail" ] }, "geometry": { "type": "Point", "coordinates": [ -113.5354175, 53.5999209 ] } },
{ "type": "Feature", "properties": { "id": "way/92823752", "name": "mark's", "address": null, "category": [ "clothes", "yes", "mark's" ] }, "geometry": { "type": "Point", "coordinates": [ -113.4965433, 53.5023003 ] } },
{ "type": "Feature", "properties": { "id": "way/98223796", "name": "alberta justice and solicitor general training academy", "address": null, "category": [ "government", "yes" ] }, "geometry": { "type": "Point", "coordinates": [ -113.6051626, 53.4596047 ] } },
{ "type": "Feature", "properties": { "id": "way/98223826", "name": "hearthstone nw", "address": null, "category": [ "driveway" ] }, "geometry": { "type": "Point", "coordinates": [ -113.5800123, 53.4958395 ] } },
{ "type": "Feature", "properties": { "id": "way/98293608", "name": "millbourne market mall", "address": "7629, 38 avenue nw, edmonton, t6k 2n2", "category": [ "mall", "retail" ] }, "geometry": { "type": "Point", "coordinates": [ -113.4500592, 53.4720809 ] } },
{ "type": "Feature", "properties": { "id": "way/106222177", "name": "marlborough place", "address": null, "category": [ "parking_aisle" ] }, "geometry": { "type": "Point", "coordinates": [ -113.6355645, 53.5003044 ] } },
{ "type": "Feature", "properties": { "id": "way/107136566", "name": "110 street nw", "address": null, "category": [ "driveway" ] }, "geometry": { "type": "Point", "coordinates": [ -113.509875, 53.5429159 ] } },
{ "type": "Feature", "properties": { "id": "way/107773459", "name": "united cycle", "address": "7618, gateway boulevard north-west", "category": [ "bicycle", "retail" ] }, "geometry": { "type": "Point", "coordinates": [ -113.4956988, 53.5128758 ] } },
{ "type": "Feature", "properties": { "id": "way/112413572", "name": "11 street nw", "address": null, "category": [ "driveway" ] }, "geometry": { "type": "Point", "coordinates": [ -113.3594916, 53.6293801 ] } },
{ "type": "Feature", "properties": { "id": "way/115562722", "name": "peace hills trust tower", "address": "9925, 109 street nw, edmonton", "category": [ "yes", "office" ] }, "geometry": { "type": "Point", "coordinates": [ -113.5079057, 53.5392514 ] } },
{ "type": "Feature", "properties": { "id": "way/120585349", "name": "leon's", "address": "4939, 52 avenue nw, edmonton, t6b 3l5", "category": [ "furniture", "warehouse", "leon's" ] }, "geometry": { "type": "Point", "coordinates": [ -113.4165578, 53.4888543 ] } },
{ "type": "Feature", "properties": { "id": "way/120628706", "name": "staples", "address": "13118, 50 street nw, edmonton, t5a 5b5", "category": [ "stationery", "retail", "staples" ] }, "geometry": { "type": "Point", "coordinates": [ -113.4176921, 53.5929964 ] } },
{ "type": "Feature", "properties": { "id": "way/125954669", "name": "edmonton yukon & pacific railway", "address": null, "category": [ "spur" ] }, "geometry": { "type": "Point", "coordinates": [ -113.5814639, 53.501038 ] } },
{ "type": "Feature", "properties": { "id": "way/125960329", "name": "edmonton yukon & pacific railway", "address": null, "category": [ "yard" ] }, "geometry": { "type": "Point", "coordinates": [ -113.5793393, 53.5001594 ] } },
{ "type": "Feature", "properties": { "id": "way/125960330", "name": "edmonton yukon & pacific railway", "address": null, "category": [ "yard" ] }, "geometry": { "type": "Point", "coordinates": [ -113.578604, 53.5004982 ] } },
{ "type": "Feature", "properties": { "id": "way/125960335", "name": "edmonton yukon & pacific railway", "address": null, "category": [ "yard" ] }, "geometry": { "type": "Point", "coordinates": [ -113.579144, 53.5002272 ] } },
{ "type": "Feature", "properties": { "id": "way/125981869", "name": "sun drug store & bill's confectionery", "address": null, "category": [ "yes", "yes" ] }, "geometry": { "type": "Point", "coordinates": [ -113.5795379, 53.5023008 ] } },
{ "type": "Feature", "properties": { "id": "way/125981872", "name": "ukrainian bookstore", "address": null, "category": [ "books", "yes" ] }, "geometry": { "type": "Point", "coordinates": [ -113.5801912, 53.5024357 ] } },
{ "type": "Feature", "properties": { "id": "way/125981875", "name": "selkirk hotel", "address": null, "category": [ "hotel", "yes" ] }, "geometry": { "type": "Point", "coordinates": [ -113.5798793, 53.502945 ] } },
{ "type": "Feature", "properties": { "id": "way/126176113", "name": "masonic hall", "address": null, "category": [ "fast_food", "yes" ] }, "geometry": { "type": "Point", "coordinates": [ -113.5806458, 53.5014272 ] } },
{ "type": "Feature", "properties": { "id": "way/126310506", "name": "reeds bazaar & tea shop", "address": null, "category": [ "gift", "yes" ] }, "geometry": { "type": "Point", "coordinates": [ -113.5811235, 53.5020744 ] } },
{ "type": "Feature", "properties": { "id": "way/126310516", "name": "ernest brown photography", "address": null, "category": [ "photographer", "yes" ] }, "geometry": { "type": "Point", "coordinates": [ -113.5810574, 53.5021959 ] } },
{ "type": "Feature", "properties": { "id": "way/126423554", "name": "value village", "address": null, "category": [ "clothes", "retail" ] }, "geometry": { "type": "Point", "coordinates": [ -113.4656586, 53.518362 ] } },
{ "type": "Feature", "properties": { "id": "way/127359405", "name": "tim hortons", "address": null, "category": [ "cafe", "retail", "tim hortons" ] }, "geometry": { "type": "Point", "coordinates": [ -113.4870018, 53.4875046 ] } },
{ "type": "Feature", "properties": { "id": "way/127359406", "name": "select", "address": "5020, 99 street nw", "category": [ "convenience", "retail" ] }, "geometry": { "type": "Point", "coordinates": [ -113.4872005, 53.48773 ] } },
{ "type": "Feature", "properties": { "id": "way/127395570", "name": "tim hortons", "address": null, "category": [ "cafe", "retail", "tim hortons" ] }, "geometry": { "type": "Point", "coordinates": [ -113.4574403, 53.5003641 ] } },
{ "type": "Feature", "properties": { "id": "way/129805533", "name": "pampa brazilian steakhouse", "address": null, "category": [ "restaurant", "retail" ] }, "geometry": { "type": "Point", "coordinates": [ -113.6163043, 53.5399746 ] } },
{ "type": "Feature", "properties": { "id": "way/129805545", "name": "mcdonald's", "address": null, "category": [ "fast_food", "retail", "mcdonald's" ] }, "geometry": { "type": "Point", "coordinates": [ -113.6265073, 53.5384111 ] } },
{ "type": "Feature", "properties": { "id": "way/132576263", "name": "mr. sub", "address": "14116, 118 avenue nw", "category": [ "fast_food", "retail", "mr. sub" ] }, "geometry": { "type": "Point", "coordinates": [ -113.5653447, 53.5706965 ] } },
{ "type": "Feature", "properties": { "id": "way/137043206", "name": "the home depot", "address": "4430, 17 street nw, edmonton, t6t 0b4", "category": [ "doityourself", "retail", "the home depot" ] }, "geometry": { "type": "Point", "coordinates": [ -113.3700562, 53.4803212 ] } },
{ "type": "Feature", "properties": { "id": "way/140776621", "name": "canadian tire", "address": null, "category": [ "department_store", "yes", "canadian tire" ] }, "geometry": { "type": "Point", "coordinates": [ -113.5256282, 53.5668392 ] } },
{ "type": "Feature", "properties": { "id": "way/151909531", "name": "boston pizza", "address": null, "category": [ "restaurant", "retail", "boston pizza" ] }, "geometry": { "type": "Point", "coordinates": [ -113.5034418, 53.5412796 ] } },
{ "type": "Feature", "properties": { "id": "way/153411074", "name": "walmart supercentre", "address": "16940, 127 street nw, edmonton, t6v 1j6", "category": [ "supermarket", "retail", "walmart" ] }, "geometry": { "type": "Point", "coordinates": [ -113.543257, 53.6317445 ] } },
{ "type": "Feature", "properties": { "id": "way/153737327", "name": "walmart supercentre", "address": null, "category": [ "supermarket", "retail", "walmart" ] }, "geometry": { "type": "Point", "coordinates": [ -113.644041, 53.5387425 ] } },
{ "type": "Feature", "properties": { "id": "way/153737328", "name": "tim hortons", "address": null, "category": [ "cafe", "retail", "tim hortons" ] }, "geometry": { "type": "Point", "coordinates": [ -113.6404692, 53.5588104 ] } },
{ "type": "Feature", "properties": { "id": "way/153737333", "name": "tim hortons", "address": "10221, 170 street nw", "category": [ "cafe", "retail", "tim hortons" ] }, "geometry": { "type": "Point", "coordinates": [ -113.615104, 53.5442013 ] } },
{ "type": "Feature", "properties": { "id": "way/153737338", "name": "tim hortons", "address": null, "category": [ "cafe", "retail", "tim hortons" ] }, "geometry": { "type": "Point", "coordinates": [ -113.6441354, 53.5406459 ] } },
{ "type": "Feature", "properties": { "id": "way/154730962", "name": "ledcor", "address": null, "category": [ "yes", "yes" ] }, "geometry": { "type": "Point", "coordinates": [ -113.4367631, 53.4947389 ] } },
{ "type": "Feature", "properties": { "id": "way/156131744", "name": "tim hortons", "address": null, "category": [ "cafe", "yes", "tim hortons" ] }, "geometry": { "type": "Point", "coordinates": [ -113.4418741, 53.4923816 ] } },
{ "type": "Feature", "properties": { "id": "way/156397585", "name": "brewsters brewing company", "address": "edmonton", "category": [ "restaurant", "retail" ] }, "geometry": { "type": "Point", "coordinates": [ -113.5961045, 53.5198222 ] } },
{ "type": "Feature", "properties": { "id": "way/156397594", "name": "mcdonald's", "address": "87 ave nw", "category": [ "fast_food", "retail", "mcdonald's" ] }, "geometry": { "type": "Point", "coordinates": [ -113.5948192, 53.5197661 ] } },
{ "type": "Feature", "properties": { "id": "way/156397596", "name": "kfc/taco bell", "address": null, "category": [ "fast_food", "retail" ] }, "geometry": { "type": "Point", "coordinates": [ -113.5909347, 53.5210206 ] } },
{ "type": "Feature", "properties": { "id": "way/156397602", "name": "second cup", "address": null, "category": [ "cafe", "retail", "second cup" ] }, "geometry": { "type": "Point", "coordinates": [ -113.5961693, 53.5200379 ] } },
{ "type": "Feature", "properties": { "id": "way/156535044", "name": "john janzen nature centre", "address": "7000, 143 street nw, edmonton, t6h 4p3", "category": [ "museum", "civic" ] }, "geometry": { "type": "Point", "coordinates": [ -113.572531, 53.5022678 ] } },
{ "type": "Feature", "properties": { "id": "way/158098825", "name": "original joe's restaurant & bar", "address": "12520, 102 avenue nw, t5n 0m3", "category": [ "pub" ] }, "geometry": { "type": "Point", "coordinates": [ -113.538786, 53.5432718 ] } },
{ "type": "Feature", "properties": { "id": "way/158738659", "name": "duchess bake shop", "address": "10718, 124 street nw, t5m 0h1", "category": [ "cafe", "retail" ] }, "geometry": { "type": "Point", "coordinates": [ -113.5363087, 53.5515238 ] } },
{ "type": "Feature", "properties": { "id": "way/158738675", "name": "northern chicken", "address": "10704, 124 street nw, t5m 0h1", "category": [ "restaurant", "retail" ] }, "geometry": { "type": "Point", "coordinates": [ -113.5363264, 53.5511671 ] } },
{ "type": "Feature", "properties": { "id": "way/158738683", "name": "washoku bistro", "address": "10702, 124 street nw, t5m 0h1", "category": [ "restaurant", "retail" ] }, "geometry": { "type": "Point", "coordinates": [ -113.5363258, 53.5511089 ] } },
{ "type": "Feature", "properties": { "id": "way/158796880", "name": "cyber-city internet cafe / illusion computer services", "address": "10722, 124 street nw, t5m 0h1", "category": [ "computer", "retail" ] }, "geometry": { "type": "Point", "coordinates": [ -113.5363756, 53.5516846 ] } },
{ "type": "Feature", "properties": { "id": "way/158796883", "name": "food dish wishes", "address": "10724, 124 street nw, t5m 0h1", "category": [ "pet", "retail" ] }, "geometry": { "type": "Point", "coordinates": [ -113.5362025, 53.5517263 ] } },
{ "type": "Feature", "properties": { "id": "way/158796886", "name": "alano club / simply done cafe", "address": "10728, 124 street nw, t5m 0h1", "category": [ "cafe", "retail" ] }, "geometry": { "type": "Point", "coordinates": [ -113.5363064, 53.551827 ] } },
{ "type": "Feature", "properties": { "id": "way/158796888", "name": "the clever rabbit vegetarian cafe", "address": "10722, 124 street nw, t5m 0h1", "category": [ "cafe", "retail" ] }, "geometry": { "type": "Point", "coordinates": [ -113.5362026, 53.5516612 ] } },
{ "type": "Feature", "properties": { "id": "way/158900174", "name": "johnson's sewing centre & quilter's dream", "address": "10736, 124 street nw, t5m 0h1", "category": [ "fabric", "retail" ] }, "geometry": { "type": "Point", "coordinates": [ -113.5363072, 53.551964 ] } },
{ "type": "Feature", "properties": { "id": "way/158900175", "name": "cafe tiramisu - lift me up", "address": "10750, 124 street nw, t5m 0h1", "category": [ "cafe", "retail" ] }, "geometry": { "type": "Point", "coordinates": [ -113.5361935, 53.5523779 ] } },
{ "type": "Feature", "properties": { "id": "way/158900179", "name": "populuxe", "address": "12407, 108 avenue nw, t5m 4g6", "category": [ "furniture", "retail" ] }, "geometry": { "type": "Point", "coordinates": [ -113.5364, 53.5523773 ] } },
{ "type": "Feature", "properties": { "id": "way/159104721", "name": "images and shades", "address": "12320, 107 avenue nw, t5m 1z1", "category": [ "beauty", "retail" ] }, "geometry": { "type": "Point", "coordinates": [ -113.5353355, 53.5512863 ] } },
{ "type": "Feature", "properties": { "id": "way/159104722", "name": "thread hill", "address": "10725, 124 street nw, t5m 0h2", "category": [ "clothes", "retail" ] }, "geometry": { "type": "Point", "coordinates": [ -113.5355014, 53.5518239 ] } },
{ "type": "Feature", "properties": { "id": "way/159104724", "name": "audio ark", "address": "10745, 124 street nw, t5m 0h2", "category": [ "hifi", "retail" ] }, "geometry": { "type": "Point", "coordinates": [ -113.5354782, 53.5520924 ] } },
{ "type": "Feature", "properties": { "id": "way/159104725", "name": "nail shop by yen", "address": "10727, 124 street nw, t5m 0h2", "category": [ "beauty", "retail" ] }, "geometry": { "type": "Point", "coordinates": [ -113.5355021, 53.5518679 ] } },
{ "type": "Feature", "properties": { "id": "way/159104729", "name": "koutouki taverna", "address": "10719, 124 street nw, t5m 0h2", "category": [ "restaurant", "retail" ] }, "geometry": { "type": "Point", "coordinates": [ -113.5354477, 53.5516556 ] } },
{ "type": "Feature", "properties": { "id": "way/159104732", "name": "local 124", "address": "10711, 124 street nw, t5m 0h2", "category": [ "sports", "retail" ] }, "geometry": { "type": "Point", "coordinates": [ -113.5353107, 53.5514332 ] } },
{ "type": "Feature", "properties": { "id": "way/160050223", "name": "the dish & the runaway spoon", "address": "12417, stony plain road nw, t5n 3n3", "category": [ "restaurant", "retail" ] }, "geometry": { "type": "Point", "coordinates": [ -113.5369056, 53.5468622 ] } },
{ "type": "Feature", "properties": { "id": "way/160050224", "name": "steeps tea", "address": "12411, stony plain road nw, t5n 3n3", "category": [ "cafe", "retail" ] }, "geometry": { "type": "Point", "coordinates": [ -113.536676, 53.5468366 ] } },
{ "type": "Feature", "properties": { "id": "way/161328165", "name": "7-eleven", "address": "15606, 111 avenue nw, edmonton, t5m 2r7", "category": [ "convenience", "yes", "7-eleven" ] }, "geometry": { "type": "Point", "coordinates": [ -113.5913745, 53.5596205 ] } },
{ "type": "Feature", "properties": { "id": "way/161926205", "name": "rundle park road nw", "address": null, "category": [ "driveway" ] }, "geometry": { "type": "Point", "coordinates": [ -113.3837714, 53.5672115 ] } },
{ "type": "Feature", "properties": { "id": "way/162732092", "name": "londonderry mall nw", "address": null, "category": [ "driveway" ] }, "geometry": { "type": "Point", "coordinates": [ -113.4457683, 53.6048738 ] } },
{ "type": "Feature", "properties": { "id": "way/166527745", "name": "great west life building", "address": "9920, 108 street nw", "category": [ "government", "yes" ] }, "geometry": { "type": "Point", "coordinates": [ -113.507141, 53.5379358 ] } },
{ "type": "Feature", "properties": { "id": "way/166527754", "name": "108 street building", "address": "9942, 108 street nw", "category": [ "yes", "office" ] }, "geometry": { "type": "Point", "coordinates": [ -113.5071083, 53.5385016 ] } },
{ "type": "Feature", "properties": { "id": "way/166527758", "name": "labour building", "address": "10808, 99 avenue nw", "category": [ "government", "office" ] }, "geometry": { "type": "Point", "coordinates": [ -113.5071411, 53.5374971 ] } },
{ "type": "Feature", "properties": { "id": "way/167031751", "name": "petro-canada", "address": "5011, 137 avenue north-west", "category": [ "convenience", "retail", "petro-canada" ] }, "geometry": { "type": "Point", "coordinates": [ -113.421987, 53.5982693 ] } },
{ "type": "Feature", "properties": { "id": "way/167031753", "name": "mcdonald's", "address": "13504, fort road nw, edmonton", "category": [ "fast_food", "retail", "mcdonald's" ] }, "geometry": { "type": "Point", "coordinates": [ -113.4248755, 53.5972947 ] } },
{ "type": "Feature", "properties": { "id": "way/169998565", "name": "110 street nw", "address": null, "category": [ "parking_aisle" ] }, "geometry": { "type": "Point", "coordinates": [ -113.5099053, 53.542365 ] } },
{ "type": "Feature", "properties": { "id": "way/169998568", "name": "110 street nw", "address": null, "category": [ "parking_aisle" ] }, "geometry": { "type": "Point", "coordinates": [ -113.5096465, 53.5416108 ] } },
{ "type": "Feature", "properties": { "id": "way/169998570", "name": "110 street nw", "address": null, "category": [ "driveway" ] }, "geometry": { "type": "Point", "coordinates": [ -113.5097784, 53.5418642 ] } },
{ "type": "Feature", "properties": { "id": "way/170237634", "name": "bass pro shops", "address": "6150, currents drive nw, edmonton, t6w 0l7", "category": [ "outdoor", "retail", "bass pro shops" ] }, "geometry": { "type": "Point", "coordinates": [ -113.6036238, 53.4392194 ] } },
{ "type": "Feature", "properties": { "id": "way/170237637", "name": "michaels", "address": null, "category": [ "craft", "yes", "michaels" ] }, "geometry": { "type": "Point", "coordinates": [ -113.5977291, 53.4371084 ] } },
{ "type": "Feature", "properties": { "id": "way/170237649", "name": "canadian tire", "address": null, "category": [ "department_store", "retail", "canadian tire" ] }, "geometry": { "type": "Point", "coordinates": [ -113.5967247, 53.4361614 ] } },
{ "type": "Feature", "properties": { "id": "way/170237651", "name": "walmart supercentre", "address": "6110, currents drive nw, edmonton, t6w 0l7", "category": [ "supermarket", "retail", "walmart" ] }, "geometry": { "type": "Point", "coordinates": [ -113.5999643, 53.4386293 ] } },
{ "type": "Feature", "properties": { "id": "way/170237653", "name": "the home depot", "address": null, "category": [ "doityourself", "retail", "the home depot" ] }, "geometry": { "type": "Point", "coordinates": [ -113.6066501, 53.4388051 ] } },
{ "type": "Feature", "properties": { "id": "way/174256532", "name": "spirit halloween", "address": null, "category": [ "party", "retail", "spirit halloween" ] }, "geometry": { "type": "Point", "coordinates": [ -113.6407265, 53.5388905 ] } },
{ "type": "Feature", "properties": { "id": "way/179461373", "name": "superstore gas bar", "address": null, "category": [ "convenience", "retail" ] }, "geometry": { "type": "Point", "coordinates": [ -113.4111464, 53.5977523 ] } },
{ "type": "Feature", "properties": { "id": "way/181229192", "name": "gateway park road sw", "address": null, "category": [ "driveway" ] }, "geometry": { "type": "Point", "coordinates": [ -113.4992893, 53.4110385 ] } },
{ "type": "Feature", "properties": { "id": "way/181229195", "name": "gateway park road sw", "address": null, "category": [ "driveway" ] }, "geometry": { "type": "Point", "coordinates": [ -113.4990764, 53.4116291 ] } },
{ "type": "Feature", "properties": { "id": "way/183553506", "name": "sandman signature", "address": null, "category": [ "hotel", "hotel" ] }, "geometry": { "type": "Point", "coordinates": [ -113.4903191, 53.4238638 ] } },
{ "type": "Feature", "properties": { "id": "way/183553507", "name": "best western south edmonton inn & suites", "address": null, "category": [ "hotel", "hotel", "best western" ] }, "geometry": { "type": "Point", "coordinates": [ -113.4904122, 53.4230636 ] } },
{ "type": "Feature", "properties": { "id": "way/183696029", "name": "east campus 87", "address": null, "category": [ "parking_aisle" ] }, "geometry": { "type": "Point", "coordinates": [ -113.5164087, 53.5233728 ] } },
{ "type": "Feature", "properties": { "id": "way/183873348", "name": "mcdonald's", "address": null, "category": [ "fast_food", "retail", "mcdonald's" ] }, "geometry": { "type": "Point", "coordinates": [ -113.4667907, 53.5615919 ] } },
{ "type": "Feature", "properties": { "id": "way/183873351", "name": "save-on-foods", "address": null, "category": [ "supermarket", "retail", "save-on-foods" ] }, "geometry": { "type": "Point", "coordinates": [ -113.4661629, 53.5624152 ] } },
{ "type": "Feature", "properties": { "id": "way/185332351", "name": "mcdonald's", "address": null, "category": [ "fast_food", "retail", "mcdonald's" ] }, "geometry": { "type": "Point", "coordinates": [ -113.5786208, 53.5592865 ] } },
{ "type": "Feature", "properties": { "id": "way/185498167", "name": "the sands hotel", "address": null, "category": [ "hotel", "retail" ] }, "geometry": { "type": "Point", "coordinates": [ -113.4551819, 53.5804022 ] } },
{ "type": "Feature", "properties": { "id": "way/186165027", "name": "riverview crossing", "address": null, "category": [ "mall", "retail" ] }, "geometry": { "type": "Point", "coordinates": [ -113.3904888, 53.571366 ] } },
{ "type": "Feature", "properties": { "id": "way/186166521", "name": "ihop", "address": "3921, calgary trail nw, edmonton, t6h 4j8", "category": [ "restaurant", "retail", "ihop" ] }, "geometry": { "type": "Point", "coordinates": [ -113.4942737, 53.4743778 ] } },
{ "type": "Feature", "properties": { "id": "way/186166528", "name": "olive garden", "address": "4110, gateway boulevard nw, edmonton", "category": [ "restaurant", "retail", "olive garden" ] }, "geometry": { "type": "Point", "coordinates": [ -113.4930337, 53.4774686 ] } },
{ "type": "Feature", "properties": { "id": "way/186167673", "name": "baekjeong korean bbq house", "address": "2874, calgary trail nw, edmonton", "category": [ "restaurant", "retail" ] }, "geometry": { "type": "Point", "coordinates": [ -113.4934202, 53.4586515 ] } },
{ "type": "Feature", "properties": { "id": "way/186651602", "name": "super 8", "address": null, "category": [ "hotel", "retail" ] }, "geometry": { "type": "Point", "coordinates": [ -113.6141526, 53.5714815 ] } },
{ "type": "Feature", "properties": { "id": "way/186652980", "name": "tim hortons", "address": null, "category": [ "cafe", "retail", "tim hortons" ] }, "geometry": { "type": "Point", "coordinates": [ -113.6163815, 53.5598737 ] } },
{ "type": "Feature", "properties": { "id": "way/186653739", "name": "a&w", "address": null, "category": [ "fast_food", "retail", "a&w" ] }, "geometry": { "type": "Point", "coordinates": [ -113.6103749, 53.5416063 ] } },
{ "type": "Feature", "properties": { "id": "way/186653741", "name": "mcdonald's", "address": null, "category": [ "fast_food", "retail", "mcdonald's" ] }, "geometry": { "type": "Point", "coordinates": [ -113.610416, 53.5408342 ] } },
{ "type": "Feature", "properties": { "id": "way/186657087", "name": "114 avenue nw", "address": null, "category": [ "alley" ] }, "geometry": { "type": "Point", "coordinates": [ -113.4207485, 53.569896 ] } },
{ "type": "Feature", "properties": { "id": "way/186657091", "name": "111 avenue nw", "address": null, "category": [ "alley" ] }, "geometry": { "type": "Point", "coordinates": [ -113.4207502, 53.5658927 ] } },
{ "type": "Feature", "properties": { "id": "way/187047360", "name": "rona+", "address": "10141, 13 avenue nw, edmonton, t6n 0b6", "category": [ "doityourself", "retail", "rona+" ] }, "geometry": { "type": "Point", "coordinates": [ -113.4873647, 53.4402556 ] } },
{ "type": "Feature", "properties": { "id": "way/187047376", "name": "mobil mart", "address": null, "category": [ "convenience", "yes", "mobil mart" ] }, "geometry": { "type": "Point", "coordinates": [ -113.4827156, 53.4532943 ] } },
{ "type": "Feature", "properties": { "id": "way/187047400", "name": "walmart supercentre", "address": "1203, parsons road nw, edmonton, t6n 0a9", "category": [ "supermarket", "retail", "walmart" ] }, "geometry": { "type": "Point", "coordinates": [ -113.481965, 53.4401589 ] } },
{ "type": "Feature", "properties": { "id": "way/191527418", "name": "113 avenue nw", "address": null, "category": [ "alley" ] }, "geometry": { "type": "Point", "coordinates": [ -113.4245936, 53.5693494 ] } },
{ "type": "Feature", "properties": { "id": "way/191527425", "name": "114 avenue nw", "address": null, "category": [ "alley" ] }, "geometry": { "type": "Point", "coordinates": [ -113.4294149, 53.5699056 ] } },
{ "type": "Feature", "properties": { "id": "way/195425215", "name": "boston pizza", "address": null, "category": [ "restaurant", "yes", "boston pizza" ] }, "geometry": { "type": "Point", "coordinates": [ -113.4910545, 53.6273295 ] } },
{ "type": "Feature", "properties": { "id": "way/195425219", "name": "sobeys", "address": null, "category": [ "supermarket", "retail", "sobeys" ] }, "geometry": { "type": "Point", "coordinates": [ -113.4892335, 53.6282795 ] } },
{ "type": "Feature", "properties": { "id": "way/195425247", "name": "petro-canada", "address": null, "category": [ "convenience", "retail", "petro-canada" ] }, "geometry": { "type": "Point", "coordinates": [ -113.4908191, 53.625379 ] } },
{ "type": "Feature", "properties": { "id": "way/198824653", "name": "kfc", "address": null, "category": [ "fast_food", "retail", "kfc" ] }, "geometry": { "type": "Point", "coordinates": [ -113.5388893, 53.5999641 ] } },
{ "type": "Feature", "properties": { "id": "way/198826612", "name": "fairmont hotel macdonald", "address": "10065, 100 street nw, edmonton, t5j 0n6", "category": [ "hotel", "hotel", "fairmont" ] }, "geometry": { "type": "Point", "coordinates": [ -113.4893876, 53.5402979 ] } },
{ "type": "Feature", "properties": { "id": "way/198985235", "name": "whyte mart", "address": "9104, 82 avenue nw", "category": [ "convenience", "retail" ] }, "geometry": { "type": "Point", "coordinates": [ -113.46798, 53.5184151 ] } },
{ "type": "Feature", "properties": { "id": "way/198986232", "name": "radisson hotel & convention center", "address": "4520, 76 avenue northwest, edmonton, t6b 0a5", "category": [ "hotel", "yes", "radisson" ] }, "geometry": { "type": "Point", "coordinates": [ -113.4111581, 53.5138805 ] } },
{ "type": "Feature", "properties": { "id": "way/199237575", "name": "dairy queen", "address": null, "category": [ "fast_food", "retail", "dairy queen" ] }, "geometry": { "type": "Point", "coordinates": [ -113.4264843, 53.5402165 ] } },
{ "type": "Feature", "properties": { "id": "way/199237583", "name": "shell", "address": null, "category": [ "convenience", "yes", "shell" ] }, "geometry": { "type": "Point", "coordinates": [ -113.4170795, 53.5407192 ] } },
{ "type": "Feature", "properties": { "id": "way/199237601", "name": "a&w", "address": null, "category": [ "fast_food", "retail", "a&w" ] }, "geometry": { "type": "Point", "coordinates": [ -113.4169711, 53.5416187 ] } },
{ "type": "Feature", "properties": { "id": "way/200859042", "name": "crosstown auto centre", "address": "15520, 123 avenue nw, edmonton, t5v 1k8", "category": [ "car", "yes", "chrysler" ] }, "geometry": { "type": "Point", "coordinates": [ -113.5882818, 53.5782721 ] } },
{ "type": "Feature", "properties": { "id": "way/204043848", "name": "canadian tire", "address": null, "category": [ "department_store", "retail", "canadian tire" ] }, "geometry": { "type": "Point", "coordinates": [ -113.6260693, 53.5356373 ] } },
{ "type": "Feature", "properties": { "id": "way/204043852", "name": "arby's", "address": "9981, 178 street, ab, t5t 6h4", "category": [ "fast_food", "commercial", "arby's" ] }, "geometry": { "type": "Point", "coordinates": [ -113.6250923, 53.5377302 ] } },
{ "type": "Feature", "properties": { "id": "way/204083897", "name": "value village", "address": null, "category": [ "second_hand", "retail", "value village" ] }, "geometry": { "type": "Point", "coordinates": [ -113.6115126, 53.5417295 ] } },
{ "type": "Feature", "properties": { "id": "way/204085522", "name": "kfc", "address": null, "category": [ "fast_food", "retail", "kfc" ] }, "geometry": { "type": "Point", "coordinates": [ -113.6267308, 53.5391865 ] } },
{ "type": "Feature", "properties": { "id": "way/204085525", "name": "earls", "address": null, "category": [ "restaurant", "yes", "earls" ] }, "geometry": { "type": "Point", "coordinates": [ -113.6140326, 53.5388593 ] } },
{ "type": "Feature", "properties": { "id": "way/205665503", "name": "pind punjab restaurant & sweets", "address": "3815, 34 street nw, edmonton, t6t 1n1", "category": [ "restaurant", "retail" ] }, "geometry": { "type": "Point", "coordinates": [ -113.3928964, 53.4738035 ] } },
{ "type": "Feature", "properties": { "id": "way/205665510", "name": "sobeys", "address": "3819, 34 street nw, edmonton, t6t 1k9", "category": [ "supermarket", "retail", "sobeys" ] }, "geometry": { "type": "Point", "coordinates": [ -113.3912415, 53.4735496 ] } },
{ "type": "Feature", "properties": { "id": "way/205665515", "name": "sobeys liquor", "address": "3803, 34 street nw, edmonton, t6t 1n2", "category": [ "alcohol", "retail", "sobeys" ] }, "geometry": { "type": "Point", "coordinates": [ -113.3929327, 53.4733012 ] } },
{ "type": "Feature", "properties": { "id": "way/205665517", "name": "mcdonald's", "address": "3841, 34 street nw, edmonton, t6t 1k9", "category": [ "fast_food", "retail", "mcdonald's" ] }, "geometry": { "type": "Point", "coordinates": [ -113.3929513, 53.4742507 ] } },
{ "type": "Feature", "properties": { "id": "way/205679780", "name": "treasure hunt liquidation ltd", "address": "13528, fort road nw, edmonton, t5a 1c5", "category": [ "second_hand", "retail" ] }, "geometry": { "type": "Point", "coordinates": [ -113.4245285, 53.5979753 ] } },
{ "type": "Feature", "properties": { "id": "way/205686288", "name": "tony roma's", "address": null, "category": [ "restaurant", "yes", "tony roma's" ] }, "geometry": { "type": "Point", "coordinates": [ -113.4441135, 53.6002402 ] } },
{ "type": "Feature", "properties": { "id": "way/205686785", "name": "long & mcquade", "address": null, "category": [ "musical_instrument", "yes", "long & mcquade" ] }, "geometry": { "type": "Point", "coordinates": [ -113.4436479, 53.5695721 ] } },
{ "type": "Feature", "properties": { "id": "way/210145629", "name": "pizza hut", "address": null, "category": [ "restaurant", "retail", "pizza hut" ] }, "geometry": { "type": "Point", "coordinates": [ -113.4325935, 53.45885 ] } },
{ "type": "Feature", "properties": { "id": "way/214588100", "name": "milestones", "address": null, "category": [ "restaurant", "yes", "milestones" ] }, "geometry": { "type": "Point", "coordinates": [ -113.6171149, 53.5381594 ] } },
{ "type": "Feature", "properties": { "id": "way/214588101", "name": "moxie's", "address": null, "category": [ "restaurant", "yes", "moxie's" ] }, "geometry": { "type": "Point", "coordinates": [ -113.6172398, 53.5385218 ] } },
{ "type": "Feature", "properties": { "id": "way/217509712", "name": "petro-canada", "address": null, "category": [ "convenience", "retail", "petro-canada" ] }, "geometry": { "type": "Point", "coordinates": [ -113.569049, 53.453537 ] } },
{ "type": "Feature", "properties": { "id": "way/217566624", "name": "tim hortons", "address": null, "category": [ "cafe", "retail", "tim hortons" ] }, "geometry": { "type": "Point", "coordinates": [ -113.4926235, 53.5924976 ] } },
{ "type": "Feature", "properties": { "id": "way/219363386", "name": "tim hortons", "address": null, "category": [ "cafe", "retail", "tim hortons" ] }, "geometry": { "type": "Point", "coordinates": [ -113.5522541, 53.5611428 ] } },
{ "type": "Feature", "properties": { "id": "way/219363389", "name": "husky", "address": null, "category": [ "convenience", "retail", "husky" ] }, "geometry": { "type": "Point", "coordinates": [ -113.5666488, 53.5565221 ] } },
{ "type": "Feature", "properties": { "id": "way/220799160", "name": "the bowl factory", "address": null, "category": [ "fast_food", "yes" ] }, "geometry": { "type": "Point", "coordinates": [ -113.6127846, 53.5536008 ] } },
{ "type": "Feature", "properties": { "id": "way/220799164", "name": "herber's autobody", "address": null, "category": [ "car_repair", "yes" ] }, "geometry": { "type": "Point", "coordinates": [ -113.6138949, 53.5527464 ] } },
{ "type": "Feature", "properties": { "id": "way/220799167", "name": "harvey's", "address": null, "category": [ "fast_food", "retail", "harvey's" ] }, "geometry": { "type": "Point", "coordinates": [ -113.6160706, 53.553551 ] } },
{ "type": "Feature", "properties": { "id": "way/220799175", "name": "wendy's", "address": null, "category": [ "fast_food", "retail", "wendy's" ] }, "geometry": { "type": "Point", "coordinates": [ -113.6161459, 53.5555687 ] } },
{ "type": "Feature", "properties": { "id": "way/220799178", "name": "just donairs", "address": null, "category": [ "fast_food", "yes" ] }, "geometry": { "type": "Point", "coordinates": [ -113.6117894, 53.5533188 ] } },
{ "type": "Feature", "properties": { "id": "way/220799183", "name": "subway", "address": null, "category": [ "fast_food", "retail", "subway" ] }, "geometry": { "type": "Point", "coordinates": [ -113.6161397, 53.555134 ] } },
{ "type": "Feature", "properties": { "id": "way/220799185", "name": "fatburger", "address": null, "category": [ "fast_food", "retail", "fatburger" ] }, "geometry": { "type": "Point", "coordinates": [ -113.6136252, 53.5535646 ] } },
{ "type": "Feature", "properties": { "id": "way/220837864", "name": "taco time", "address": null, "category": [ "fast_food", "retail", "taco time" ] }, "geometry": { "type": "Point", "coordinates": [ -113.6098385, 53.5419673 ] } },
{ "type": "Feature", "properties": { "id": "way/220837868", "name": "days inn & suites", "address": null, "category": [ "hotel", "yes", "days inn" ] }, "geometry": { "type": "Point", "coordinates": [ -113.6314859, 53.5385759 ] } },
{ "type": "Feature", "properties": { "id": "way/220837870", "name": "quality inn west harvest", "address": null, "category": [ "hotel", "yes", "quality inn" ] }, "geometry": { "type": "Point", "coordinates": [ -113.6287063, 53.5404824 ] } },
{ "type": "Feature", "properties": { "id": "way/220837873", "name": "best western plus westwood inn", "address": null, "category": [ "hotel", "yes", "best western plus" ] }, "geometry": { "type": "Point", "coordinates": [ -113.6337213, 53.5403502 ] } },
{ "type": "Feature", "properties": { "id": "way/221080742", "name": "liquor depot", "address": null, "category": [ "alcohol", "retail", "liquor depot" ] }, "geometry": { "type": "Point", "coordinates": [ -113.6026198, 53.4379718 ] } },
{ "type": "Feature", "properties": { "id": "way/221080743", "name": "montana's", "address": null, "category": [ "restaurant", "retail", "montana's" ] }, "geometry": { "type": "Point", "coordinates": [ -113.6033988, 53.4380223 ] } },
{ "type": "Feature", "properties": { "id": "way/221080744", "name": "safeway", "address": null, "category": [ "supermarket", "yes", "safeway" ] }, "geometry": { "type": "Point", "coordinates": [ -113.5998609, 53.4350579 ] } },
{ "type": "Feature", "properties": { "id": "way/221080746", "name": "shell", "address": "6004, currents drive nw, edmonton, t6w 0l9", "category": [ "convenience", "retail", "shell" ] }, "geometry": { "type": "Point", "coordinates": [ -113.6078739, 53.4362747 ] } },
{ "type": "Feature", "properties": { "id": "way/221080747", "name": "tim hortons", "address": null, "category": [ "cafe", "retail", "tim hortons" ] }, "geometry": { "type": "Point", "coordinates": [ -113.6062608, 53.4375611 ] } },
{ "type": "Feature", "properties": { "id": "way/221080754", "name": "swiss chalet", "address": "6303, currents drive nw, edmonton, t6w 0l9", "category": [ "restaurant", "yes", "swiss chalet" ] }, "geometry": { "type": "Point", "coordinates": [ -113.6068878, 53.43616 ] } },
{ "type": "Feature", "properties": { "id": "way/221355638", "name": "wingate inn edmonton west", "address": "18220, 100 avenue nw, edmonton, t5s 2v2", "category": [ "hotel", "hotel", "wingate" ] }, "geometry": { "type": "Point", "coordinates": [ -113.6363413, 53.5385954 ] } },
{ "type": "Feature", "properties": { "id": "way/221355639", "name": "courtyard edmonton west", "address": "10011, 184 street nw, edmonton", "category": [ "hotel", "hotel", "courtyard" ] }, "geometry": { "type": "Point", "coordinates": [ -113.6390555, 53.5381728 ] } },
{ "type": "Feature", "properties": { "id": "way/221355642", "name": "homefire bar & grill", "address": null, "category": [ "restaurant", "retail" ] }, "geometry": { "type": "Point", "coordinates": [ -113.6359569, 53.5379608 ] } },
{ "type": "Feature", "properties": { "id": "way/221355643", "name": "hampton inn and suites", "address": null, "category": [ "hotel", "hotel", "hampton" ] }, "geometry": { "type": "Point", "coordinates": [ -113.6376534, 53.5381467 ] } },
{ "type": "Feature", "properties": { "id": "way/221360787", "name": "wine & beyond", "address": "11011, 51 avenue north-west", "category": [ "alcohol", "retail" ] }, "geometry": { "type": "Point", "coordinates": [ -113.5154265, 53.4878644 ] } },
{ "type": "Feature", "properties": { "id": "way/221489220", "name": "husky", "address": null, "category": [ "convenience", "retail", "husky" ] }, "geometry": { "type": "Point", "coordinates": [ -113.4005995, 53.621616 ] } },
{ "type": "Feature", "properties": { "id": "way/221495519", "name": "mcdonald drive through", "address": null, "category": [ "drive-through" ] }, "geometry": { "type": "Point", "coordinates": [ -113.5864779, 53.4690648 ] } },
{ "type": "Feature", "properties": { "id": "way/221525672", "name": "art gallery of alberta", "address": "2, sir winston churchill square nw, edmonton, t5j 2c1", "category": [ "museum", "public" ] }, "geometry": { "type": "Point", "coordinates": [ -113.4885878, 53.5449546 ] } },
{ "type": "Feature", "properties": { "id": "way/221871594", "name": "blue cross", "address": null, "category": [ "yes", "yes" ] }, "geometry": { "type": "Point", "coordinates": [ -113.5060945, 53.5391012 ] } },
{ "type": "Feature", "properties": { "id": "way/221871595", "name": "money mart", "address": null, "category": [ "money_lender", "retail", "money mart" ] }, "geometry": { "type": "Point", "coordinates": [ -113.5063011, 53.5411631 ] } },
{ "type": "Feature", "properties": { "id": "way/221871596", "name": "inasal grill avenue", "address": null, "category": [ "fast_food", "retail" ] }, "geometry": { "type": "Point", "coordinates": [ -113.5060641, 53.5411639 ] } },
{ "type": "Feature", "properties": { "id": "way/222485272", "name": "sentinel storage", "address": null, "category": [ "storage_rental" ] }, "geometry": { "type": "Point", "coordinates": [ -113.3118305, 53.571668 ] } },
{ "type": "Feature", "properties": { "id": "way/222646872", "name": "edmonton arts council shop & services", "address": null, "category": [ "ticket", "retail" ] }, "geometry": { "type": "Point", "coordinates": [ -113.4903643, 53.5437446 ] } },
{ "type": "Feature", "properties": { "id": "way/222679704", "name": "tim hortons", "address": null, "category": [ "cafe", "retail", "tim hortons" ] }, "geometry": { "type": "Point", "coordinates": [ -113.4173753, 53.4823991 ] } },
{ "type": "Feature", "properties": { "id": "way/222679711", "name": "devonian", "address": "11150, jasper avenue nw", "category": [ "yes", "yes" ] }, "geometry": { "type": "Point", "coordinates": [ -113.5132701, 53.5412786 ] } },
{ "type": "Feature", "properties": { "id": "way/222791339", "name": "dairy queen", "address": null, "category": [ "fast_food", "retail", "dairy queen" ] }, "geometry": { "type": "Point", "coordinates": [ -113.3942827, 53.5700943 ] } },
{ "type": "Feature", "properties": { "id": "way/223076611", "name": "7-eleven", "address": null, "category": [ "convenience", "retail", "7-eleven" ] }, "geometry": { "type": "Point", "coordinates": [ -113.4665127, 53.5926336 ] } },
{ "type": "Feature", "properties": { "id": "way/225052998", "name": "tim hortons drive through", "address": null, "category": [ "drive-through" ] }, "geometry": { "type": "Point", "coordinates": [ -113.5175999, 53.4241744 ] } },
{ "type": "Feature", "properties": { "id": "way/225052999", "name": "esso car wash access", "address": null, "category": [ "drive-through" ] }, "geometry": { "type": "Point", "coordinates": [ -113.5181855, 53.4241983 ] } },
{ "type": "Feature", "properties": { "id": "way/225053000", "name": "virginia park esso", "address": "11103, ellerslie road sw, edmonton, t6w 0e9", "category": [ "fuel", "convenience", "retail" ] }, "geometry": { "type": "Point", "coordinates": [ -113.5175984, 53.4241522 ] } },
{ "type": "Feature", "properties": { "id": "way/225752571", "name": "cannabis discounter", "address": null, "category": [ "cannabis", "yes" ] }, "geometry": { "type": "Point", "coordinates": [ -113.5077307, 53.5432034 ] } },
{ "type": "Feature", "properties": { "id": "way/225752596", "name": "carbon graphics group", "address": "10159, 108 street nw, edmonton, t5j 1l1", "category": [ "printing", "yes" ] }, "geometry": { "type": "Point", "coordinates": [ -113.5061034, 53.5422936 ] } },
{ "type": "Feature", "properties": { "id": "way/225923574", "name": "morris lofts", "address": "10154, 103 street nw", "category": [ "yes", "yes" ] }, "geometry": { "type": "Point", "coordinates": [ -113.4979459, 53.5421474 ] } },
{ "type": "Feature", "properties": { "id": "way/225923583", "name": "telus main wire centre", "address": "10405, 104 street nw, edmonton, t6j 2y4", "category": [ "telecommunication", "industrial" ] }, "geometry": { "type": "Point", "coordinates": [ -113.4997546, 53.5458103 ] } },
{ "type": "Feature", "properties": { "id": "way/225923609", "name": "denny's", "address": null, "category": [ "restaurant", "yes", "denny's" ] }, "geometry": { "type": "Point", "coordinates": [ -113.5069926, 53.5459723 ] } },
{ "type": "Feature", "properties": { "id": "way/225999761", "name": "el furniture warehouse", "address": "10765, jasper avenue nw, edmonton, t5j 2a5", "category": [ "restaurant", "retail" ] }, "geometry": { "type": "Point", "coordinates": [ -113.5063057, 53.5407175 ] } },
{ "type": "Feature", "properties": { "id": "way/225999763", "name": "seventh street plaza", "address": "10030, 107 street nw, edmonton, t5j 3e4", "category": [ "government", "office" ] }, "geometry": { "type": "Point", "coordinates": [ -113.5053008, 53.5398636 ] } },
{ "type": "Feature", "properties": { "id": "way/225999773", "name": "centre west", "address": null, "category": [ "yes", "yes" ] }, "geometry": { "type": "Point", "coordinates": [ -113.5060806, 53.5398422 ] } },
{ "type": "Feature", "properties": { "id": "way/225999779", "name": "canadian red cross", "address": "9931, 106 st nw, edmonton, t5k 1e2", "category": [ "ngo", "office" ] }, "geometry": { "type": "Point", "coordinates": [ -113.5024803, 53.5381938 ] } },
{ "type": "Feature", "properties": { "id": "way/226445923", "name": "hampton", "address": null, "category": [ "hotel", "hotel", "hampton" ] }, "geometry": { "type": "Point", "coordinates": [ -113.4885717, 53.4235514 ] } },
{ "type": "Feature", "properties": { "id": "way/226445932", "name": "white spot", "address": null, "category": [ "restaurant", "retail", "white spot" ] }, "geometry": { "type": "Point", "coordinates": [ -113.4884375, 53.4242135 ] } },
{ "type": "Feature", "properties": { "id": "way/226445933", "name": "four points by sheraton", "address": null, "category": [ "hotel", "yes", "four points by sheraton" ] }, "geometry": { "type": "Point", "coordinates": [ -113.4875733, 53.4241354 ] } },
{ "type": "Feature", "properties": { "id": "way/226581545", "name": "government house", "address": null, "category": [ "government", "yes" ] }, "geometry": { "type": "Point", "coordinates": [ -113.543977, 53.5416089 ] } },
{ "type": "Feature", "properties": { "id": "way/226584734", "name": "john walter museum", "address": "9180, walterdale hill nw, edmonton", "category": [ "museum" ] }, "geometry": { "type": "Point", "coordinates": [ -113.5048249, 53.5277913 ] } },
{ "type": "Feature", "properties": { "id": "way/226719036", "name": "little caesar", "address": null, "category": [ "restaurant", "yes" ] }, "geometry": { "type": "Point", "coordinates": [ -113.5194791, 53.5466107 ] } },
{ "type": "Feature", "properties": { "id": "way/226719052", "name": "yeg autoworks & inspection services inc.", "address": "11519, 105 avenue nw, edmonton", "category": [ "car_repair", "yes" ] }, "geometry": { "type": "Point", "coordinates": [ -113.5207496, 53.547996 ] } },
{ "type": "Feature", "properties": { "id": "way/226719059", "name": "beer revolution", "address": null, "category": [ "bar", "retail" ] }, "geometry": { "type": "Point", "coordinates": [ -113.5235475, 53.5465689 ] } },
{ "type": "Feature", "properties": { "id": "way/226826709", "name": "sawmill", "address": null, "category": [ "restaurant", "yes" ] }, "geometry": { "type": "Point", "coordinates": [ -113.520471, 53.5466043 ] } },
{ "type": "Feature", "properties": { "id": "way/226826710", "name": "brewsters brewing company", "address": null, "category": [ "restaurant", "yes" ] }, "geometry": { "type": "Point", "coordinates": [ -113.5217027, 53.5471096 ] } },
{ "type": "Feature", "properties": { "id": "way/226827221", "name": "ying fat foods ltd", "address": "10512, 98 street nw, edmonton, t5h 2n7", "category": [ "greengrocer", "retail" ] }, "geometry": { "type": "Point", "coordinates": [ -113.4899604, 53.5488292 ] } },
{ "type": "Feature", "properties": { "id": "way/226827249", "name": "97 hot pot", "address": null, "category": [ "restaurant", "yes" ] }, "geometry": { "type": "Point", "coordinates": [ -113.4891166, 53.5503851 ] } },
{ "type": "Feature", "properties": { "id": "way/226991571", "name": "slatter way", "address": null, "category": [ "alley" ] }, "geometry": { "type": "Point", "coordinates": [ -113.4987854, 53.5380191 ] } },
{ "type": "Feature", "properties": { "id": "way/227210736", "name": "independent jewelers", "address": null, "category": [ "jewelry", "retail" ] }, "geometry": { "type": "Point", "coordinates": [ -113.6165421, 53.5613538 ] } },
{ "type": "Feature", "properties": { "id": "way/227210739", "name": "lexus of edmonton", "address": "11204, 170 street nw", "category": [ "car", "retail", "lexus" ] }, "geometry": { "type": "Point", "coordinates": [ -113.6167071, 53.5605074 ] } },
{ "type": "Feature", "properties": { "id": "way/227210740", "name": "holiday inn express", "address": null, "category": [ "hotel", "yes", "holiday inn express" ] }, "geometry": { "type": "Point", "coordinates": [ -113.6165251, 53.5621583 ] } },
{ "type": "Feature", "properties": { "id": "way/229219701", "name": "ninth street cycle-logic", "address": "7805, 109 st nw, t6g 1c6", "category": [ "bicycle" ] }, "geometry": { "type": "Point", "coordinates": [ -113.5115656, 53.5144864 ] } },
{ "type": "Feature", "properties": { "id": "way/230718905", "name": "chateau nova hotel & suites", "address": null, "category": [ "hotel", "yes" ] }, "geometry": { "type": "Point", "coordinates": [ -113.5270899, 53.5695654 ] } },
{ "type": "Feature", "properties": { "id": "way/230718931", "name": "real canadian superstore", "address": "11541, kingsway nw, edmonton, t5g 3e8", "category": [ "supermarket", "retail", "real canadian superstore" ] }, "geometry": { "type": "Point", "coordinates": [ -113.5215427, 53.5648348 ] } },
{ "type": "Feature", "properties": { "id": "way/233032229", "name": "save-on-foods", "address": "10180, 109 street nw, edmonton, t5j 5b4", "category": [ "supermarket", "retail", "save-on-foods" ] }, "geometry": { "type": "Point", "coordinates": [ -113.5091937, 53.542637 ] } },
{ "type": "Feature", "properties": { "id": "way/237529366", "name": "real canadian superstore", "address": "4410, 17 street nw, edmonton, t6t 0c1", "category": [ "supermarket", "retail", "real canadian superstore" ] }, "geometry": { "type": "Point", "coordinates": [ -113.3744894, 53.4808751 ] } },
{ "type": "Feature", "properties": { "id": "way/237529374", "name": "montana's", "address": "63816, 17 street nw, edmonton, t6t 0c2", "category": [ "restaurant", "retail", "montana's" ] }, "geometry": { "type": "Point", "coordinates": [ -113.3700388, 53.4775125 ] } },
{ "type": "Feature", "properties": { "id": "way/237529387", "name": "mobil", "address": "4016, 17 street nw, edmonton, t6t 0c1", "category": [ "fuel", "convenience", "roof;retail", "mobil" ] }, "geometry": { "type": "Point", "coordinates": [ -113.3696649, 53.479029 ] } },
{ "type": "Feature", "properties": { "id": "way/237563999", "name": "carruthers lane sw", "address": null, "category": [ "alley" ] }, "geometry": { "type": "Point", "coordinates": [ -113.5736412, 53.4083397 ] } },
{ "type": "Feature", "properties": { "id": "way/238507031", "name": "sound connection", "address": null, "category": [ "music", "yes" ] }, "geometry": { "type": "Point", "coordinates": [ -113.489415, 53.5183558 ] } },
{ "type": "Feature", "properties": { "id": "way/240183790", "name": "jasper house hotel", "address": null, "category": [ "cafe", "yes" ] }, "geometry": { "type": "Point", "coordinates": [ -113.5827117, 53.5012651 ] } },
{ "type": "Feature", "properties": { "id": "way/244109912", "name": "best buy", "address": "10304, 109 street nw, edmonton, t5j 1m3", "category": [ "electronics", "retail", "best buy" ] }, "geometry": { "type": "Point", "coordinates": [ -113.5097174, 53.5451031 ] } },
{ "type": "Feature", "properties": { "id": "way/244109914", "name": "harvey's", "address": null, "category": [ "fast_food", "retail", "harvey's" ] }, "geometry": { "type": "Point", "coordinates": [ -113.5089157, 53.5457441 ] } },
{ "type": "Feature", "properties": { "id": "way/244113225", "name": "tim hortons", "address": null, "category": [ "cafe", "yes", "tim hortons" ] }, "geometry": { "type": "Point", "coordinates": [ -113.5109669, 53.5458763 ] } },
{ "type": "Feature", "properties": { "id": "way/253742869", "name": "real canadian liquorstore", "address": "5031, calgary trail nw", "category": [ "alcohol", "retail" ] }, "geometry": { "type": "Point", "coordinates": [ -113.4943017, 53.4877623 ] } },
{ "type": "Feature", "properties": { "id": "way/253742870", "name": "mcdonald's", "address": "10375, 51 avenue nw", "category": [ "fast_food", "retail", "mcdonald's" ] }, "geometry": { "type": "Point", "coordinates": [ -113.4957553, 53.4875876 ] } },
{ "type": "Feature", "properties": { "id": "way/258977742", "name": "strathcom media", "address": "18252, 102 avenue nw, edmonton, t5s 1s7", "category": [ "company", "office" ] }, "geometry": { "type": "Point", "coordinates": [ -113.6361687, 53.5435602 ] } },
{ "type": "Feature", "properties": { "id": "way/259604403", "name": "dairy queen", "address": "6925, 99 street nw", "category": [ "fast_food", "retail", "dairy queen" ] }, "geometry": { "type": "Point", "coordinates": [ -113.4858078, 53.5062729 ] } },
{ "type": "Feature", "properties": { "id": "way/259681082", "name": "co-op", "address": null, "category": [ "convenience", "yes", "federated co-operatives" ] }, "geometry": { "type": "Point", "coordinates": [ -113.6647937, 53.4944564 ] } },
{ "type": "Feature", "properties": { "id": "way/259682607", "name": "dq grill & chill", "address": "6214, 199 street nw, edmonton, t5t 2k4", "category": [ "fast_food", "retail", "dq grill & chill" ] }, "geometry": { "type": "Point", "coordinates": [ -113.6665312, 53.4942521 ] } },
{ "type": "Feature", "properties": { "id": "way/259682609", "name": "save-on-foods", "address": "6260, 199 street nw, edmonton, t5t 2k4", "category": [ "supermarket", "retail", "save-on-foods" ] }, "geometry": { "type": "Point", "coordinates": [ -113.6677825, 53.495435 ] } },
{ "type": "Feature", "properties": { "id": "way/259682611", "name": "starbucks", "address": "6226, 199 street nw, edmonton, t5t 2k4", "category": [ "cafe", "retail", "starbucks" ] }, "geometry": { "type": "Point", "coordinates": [ -113.6683573, 53.4942363 ] } },
{ "type": "Feature", "properties": { "id": "way/259682612", "name": "liquor depot", "address": "6242, 199 street nw, edmonton, t5t 2k4", "category": [ "alcohol", "retail", "liquor depot" ] }, "geometry": { "type": "Point", "coordinates": [ -113.6678429, 53.494988 ] } },
{ "type": "Feature", "properties": { "id": "way/259682613", "name": "boston pizza", "address": "6238, 199 street nw, edmonton, t5t 4k2", "category": [ "restaurant", "retail", "boston pizza" ] }, "geometry": { "type": "Point", "coordinates": [ -113.6680038, 53.4948163 ] } },
{ "type": "Feature", "properties": { "id": "way/259684630", "name": "mccormack optometric centre", "address": null, "category": [ "optician", "yes" ] }, "geometry": { "type": "Point", "coordinates": [ -113.6643887, 53.4958889 ] } },
{ "type": "Feature", "properties": { "id": "way/259685043", "name": "m&m meats", "address": null, "category": [ "supermarket", "yes" ] }, "geometry": { "type": "Point", "coordinates": [ -113.6643604, 53.4955331 ] } },
{ "type": "Feature", "properties": { "id": "way/259693030", "name": "costco", "address": "7259, winterburn rd, edmonton, t5t 4k2", "category": [ "wholesale", "retail", "costco" ] }, "geometry": { "type": "Point", "coordinates": [ -113.6848502, 53.5095249 ] } },
{ "type": "Feature", "properties": { "id": "way/259693031", "name": "costco liquor", "address": null, "category": [ "alcohol", "yes" ] }, "geometry": { "type": "Point", "coordinates": [ -113.6856965, 53.5091928 ] } },
{ "type": "Feature", "properties": { "id": "way/259872756", "name": "safeway", "address": null, "category": [ "supermarket", "yes", "safeway" ] }, "geometry": { "type": "Point", "coordinates": [ -113.6743272, 53.5104785 ] } },
{ "type": "Feature", "properties": { "id": "way/259873128", "name": "jiffy lube", "address": null, "category": [ "car_repair", "yes", "jiffy lube" ] }, "geometry": { "type": "Point", "coordinates": [ -113.6746392, 53.5098608 ] } },
{ "type": "Feature", "properties": { "id": "way/263449458", "name": "7-eleven", "address": null, "category": [ "convenience", "yes", "7-eleven" ] }, "geometry": { "type": "Point", "coordinates": [ -113.6478406, 53.4962371 ] } },
{ "type": "Feature", "properties": { "id": "way/263739945", "name": "edmonton bmw", "address": null, "category": [ "car", "yes" ] }, "geometry": { "type": "Point", "coordinates": [ -113.441513, 53.4938155 ] } },
{ "type": "Feature", "properties": { "id": "way/263739946", "name": "amec foster wheeler", "address": "5681, 70 street nw, edmonton, t6b 3p6", "category": [ "engineering", "office" ] }, "geometry": { "type": "Point", "coordinates": [ -113.4340811, 53.4936031 ] } },
{ "type": "Feature", "properties": { "id": "way/263741758", "name": "carl's jr.", "address": "6950, 75 street nw, edmonton, t6e 5a9", "category": [ "fast_food", "commercial", "carl's jr." ] }, "geometry": { "type": "Point", "coordinates": [ -113.4435106, 53.5071185 ] } },
{ "type": "Feature", "properties": { "id": "way/263741759", "name": "boston pizza", "address": "7641, argyll road nw, edmonton, t6c 4a7", "category": [ "restaurant", "yes", "boston pizza" ] }, "geometry": { "type": "Point", "coordinates": [ -113.4446208, 53.5069615 ] } },
{ "type": "Feature", "properties": { "id": "way/263743701", "name": "shell select", "address": "6124, 50 street nw, edmonton, t6b 2n7", "category": [ "convenience", "retail", "shell select" ] }, "geometry": { "type": "Point", "coordinates": [ -113.419207, 53.4987693 ] } },
{ "type": "Feature", "properties": { "id": "way/263743702", "name": "tim hortons", "address": "6120, 50 street nw, edmonton, t6b 2n7", "category": [ "cafe", "retail", "tim hortons" ] }, "geometry": { "type": "Point", "coordinates": [ -113.419234, 53.4986197 ] } },
{ "type": "Feature", "properties": { "id": "way/263746565", "name": "taco del mar", "address": null, "category": [ "fast_food", "yes", "taco del mar" ] }, "geometry": { "type": "Point", "coordinates": [ -113.443298, 53.4914814 ] } },
{ "type": "Feature", "properties": { "id": "way/263746568", "name": "subway", "address": null, "category": [ "fast_food", "yes", "subway" ] }, "geometry": { "type": "Point", "coordinates": [ -113.443301, 53.491363 ] } },
{ "type": "Feature", "properties": { "id": "way/263747610", "name": "the ups store", "address": null, "category": [ "logistics", "commercial", "the ups store" ] }, "geometry": { "type": "Point", "coordinates": [ -113.4443505, 53.4917766 ] } },
{ "type": "Feature", "properties": { "id": "way/265360469", "name": "provincial archives of alberta", "address": "8555, roper road nw, edmonton, t6e 5w1", "category": [ "government", "government" ] }, "geometry": { "type": "Point", "coordinates": [ -113.4519215, 53.4869112 ] } },
{ "type": "Feature", "properties": { "id": "way/265560896", "name": "shell select", "address": null, "category": [ "convenience", "yes", "shell select" ] }, "geometry": { "type": "Point", "coordinates": [ -113.4940118, 53.4671298 ] } },
{ "type": "Feature", "properties": { "id": "way/265896738", "name": "liquor depot", "address": null, "category": [ "alcohol", "yes", "liquor depot" ] }, "geometry": { "type": "Point", "coordinates": [ -113.6744425, 53.5111241 ] } },
{ "type": "Feature", "properties": { "id": "way/265896740", "name": "barber 360", "address": null, "category": [ "hairdresser", "yes" ] }, "geometry": { "type": "Point", "coordinates": [ -113.6744422, 53.5114077 ] } },
{ "type": "Feature", "properties": { "id": "way/265896741", "name": "skin & body solutions inc.", "address": null, "category": [ "beauty", "yes" ] }, "geometry": { "type": "Point", "coordinates": [ -113.6744427, 53.5112807 ] } },
{ "type": "Feature", "properties": { "id": "way/266069196", "name": "dq grill & chill", "address": "10421, 51 ave nw, edmonton, t6h 0k4", "category": [ "fast_food", "retail", "dq grill & chill" ] }, "geometry": { "type": "Point", "coordinates": [ -113.4985303, 53.487574 ] } },
{ "type": "Feature", "properties": { "id": "way/266069197", "name": "sobeys liquor", "address": "10423, 51 ave nw", "category": [ "alcohol", "retail", "sobeys" ] }, "geometry": { "type": "Point", "coordinates": [ -113.498496, 53.487802 ] } },
{ "type": "Feature", "properties": { "id": "way/266069199", "name": "7-eleven", "address": "4950, calgary trail nw", "category": [ "convenience", "retail", "7-eleven" ] }, "geometry": { "type": "Point", "coordinates": [ -113.4958153, 53.4871734 ] } },
{ "type": "Feature", "properties": { "id": "way/273392135", "name": "schanks sports bar", "address": null, "category": [ "bar", "yes" ] }, "geometry": { "type": "Point", "coordinates": [ -113.6228342, 53.5363721 ] } },
{ "type": "Feature", "properties": { "id": "way/273392136", "name": "royal buffet", "address": null, "category": [ "restaurant", "yes" ] }, "geometry": { "type": "Point", "coordinates": [ -113.6267072, 53.5367901 ] } },
{ "type": "Feature", "properties": { "id": "way/273392137", "name": "petsmart", "address": null, "category": [ "pet", "yes", "petsmart" ] }, "geometry": { "type": "Point", "coordinates": [ -113.6185775, 53.5373797 ] } },
{ "type": "Feature", "properties": { "id": "way/273392138", "name": "toys r us", "address": null, "category": [ "toys", "yes", "toys r us" ] }, "geometry": { "type": "Point", "coordinates": [ -113.6181958, 53.5362899 ] } },
{ "type": "Feature", "properties": { "id": "way/273396037", "name": "alberta motor association", "address": null, "category": [ "insurance", "yes", "caa" ] }, "geometry": { "type": "Point", "coordinates": [ -113.6179716, 53.5374172 ] } },
{ "type": "Feature", "properties": { "id": "way/273396038", "name": "quiznos", "address": null, "category": [ "fast_food", "yes", "quiznos" ] }, "geometry": { "type": "Point", "coordinates": [ -113.6176876, 53.5374766 ] } },
{ "type": "Feature", "properties": { "id": "way/273396039", "name": "mikada", "address": null, "category": [ "restaurant", "yes" ] }, "geometry": { "type": "Point", "coordinates": [ -113.6175457, 53.5374875 ] } },
{ "type": "Feature", "properties": { "id": "way/273396041", "name": "chapters", "address": null, "category": [ "books", "yes", "chapters" ] }, "geometry": { "type": "Point", "coordinates": [ -113.6169065, 53.5374906 ] } },
{ "type": "Feature", "properties": { "id": "way/273396042", "name": "good earth coffeehouse", "address": null, "category": [ "cafe", "yes", "good earth coffeehouse" ] }, "geometry": { "type": "Point", "coordinates": [ -113.6166332, 53.5373748 ] } },
{ "type": "Feature", "properties": { "id": "way/273396043", "name": "the keg", "address": "9960, 170 street nw, edmonton, t5t 5l5", "category": [ "restaurant", "yes", "the keg" ] }, "geometry": { "type": "Point", "coordinates": [ -113.6160898, 53.5374642 ] } },
{ "type": "Feature", "properties": { "id": "way/273400860", "name": "jiffy lube", "address": null, "category": [ "car_repair", "yes", "jiffy lube" ] }, "geometry": { "type": "Point", "coordinates": [ -113.6277671, 53.5341514 ] } },
{ "type": "Feature", "properties": { "id": "way/273893307", "name": "mcdonald's", "address": null, "category": [ "fast_food", "retail", "mcdonald's" ] }, "geometry": { "type": "Point", "coordinates": [ -113.417833, 53.5869571 ] } },
{ "type": "Feature", "properties": { "id": "way/273893309", "name": "arby's", "address": "12805, 50 street, ab, t5a 3p3", "category": [ "fast_food", "commercial", "arby's" ] }, "geometry": { "type": "Point", "coordinates": [ -113.4175403, 53.5879034 ] } },
{ "type": "Feature", "properties": { "id": "way/286962212", "name": "mcdonald's", "address": null, "category": [ "fast_food", "retail", "mcdonald's" ] }, "geometry": { "type": "Point", "coordinates": [ -113.5021855, 53.5593279 ] } },
{ "type": "Feature", "properties": { "id": "way/290623765", "name": "rabbit hill court nw", "address": null, "category": [ "driveway" ] }, "geometry": { "type": "Point", "coordinates": [ -113.5933473, 53.4711492 ] } },
{ "type": "Feature", "properties": { "id": "way/292012963", "name": "7-eleven", "address": "3341, 34 street nw, edmonton, t6t 0b8", "category": [ "convenience", "retail", "7-eleven" ] }, "geometry": { "type": "Point", "coordinates": [ -113.3930232, 53.4631952 ] } },
{ "type": "Feature", "properties": { "id": "way/293592075", "name": "husky", "address": null, "category": [ "convenience", "retail", "husky" ] }, "geometry": { "type": "Point", "coordinates": [ -113.4749149, 53.4254942 ] } },
{ "type": "Feature", "properties": { "id": "way/294558281", "name": "giant tiger", "address": "14097, victoria trail nw, edmonton, t5y 2b6", "category": [ "department_store", "retail", "giant tiger" ] }, "geometry": { "type": "Point", "coordinates": [ -113.383844, 53.604573 ] } },
{ "type": "Feature", "properties": { "id": "way/295601885", "name": "sobeys", "address": "13504, victoria trail nw, edmonton, t5a 5b9", "category": [ "supermarket", "retail", "sobeys" ] }, "geometry": { "type": "Point", "coordinates": [ -113.3887494, 53.5977145 ] } },
{ "type": "Feature", "properties": { "id": "way/295601886", "name": "tim hortons", "address": "2943, 137 avenue nw, edmonton, t5a 5g8", "category": [ "cafe", "retail", "tim hortons" ] }, "geometry": { "type": "Point", "coordinates": [ -113.3882325, 53.5991545 ] } },
{ "type": "Feature", "properties": { "id": "way/295601887", "name": "tim hortons drive-thru", "address": null, "category": [ "drive-through" ] }, "geometry": { "type": "Point", "coordinates": [ -113.3883196, 53.5991521 ] } },
{ "type": "Feature", "properties": { "id": "way/295601897", "name": "mcdonald's", "address": null, "category": [ "fast_food", "yes", "mcdonald's" ] }, "geometry": { "type": "Point", "coordinates": [ -113.3869205, 53.597026 ] } },
{ "type": "Feature", "properties": { "id": "way/295699426", "name": "7-eleven", "address": null, "category": [ "convenience", "yes", "7-eleven" ] }, "geometry": { "type": "Point", "coordinates": [ -113.4438087, 53.4822588 ] } },
{ "type": "Feature", "properties": { "id": "way/295699427", "name": "tim hortons", "address": null, "category": [ "cafe", "yes", "tim hortons" ] }, "geometry": { "type": "Point", "coordinates": [ -113.4438092, 53.4821418 ] } },
{ "type": "Feature", "properties": { "id": "way/295699430", "name": "mcdonald's", "address": "4202, 66 street nw, edmonton, t6k 4a2", "category": [ "fast_food", "retail", "mcdonald's" ] }, "geometry": { "type": "Point", "coordinates": [ -113.4435775, 53.4811265 ] } },
{ "type": "Feature", "properties": { "id": "way/299711426", "name": "the hexagon board game cafe", "address": "10123, whyte avenue nw, edmonton, t6e 1z5", "category": [ "cafe", "retail" ] }, "geometry": { "type": "Point", "coordinates": [ -113.4922289, 53.5178169 ] } },
{ "type": "Feature", "properties": { "id": "way/300145533", "name": "no frills", "address": null, "category": [ "supermarket", "retail", "no frills" ] }, "geometry": { "type": "Point", "coordinates": [ -113.4902337, 53.6156262 ] } },
{ "type": "Feature", "properties": { "id": "way/300145556", "name": "133 avenue nw", "address": null, "category": [ "alley" ] }, "geometry": { "type": "Point", "coordinates": [ -113.4812431, 53.5942008 ] } },
{ "type": "Feature", "properties": { "id": "way/300145559", "name": "133a avenue nw", "address": null, "category": [ "alley" ] }, "geometry": { "type": "Point", "coordinates": [ -113.4812423, 53.5943532 ] } },