{
"type": "FeatureCollection",
"name": "overpass_philadelphia_normalized",
"crs": { "type": "name", "properties": { "name": "urn:ogc:def:crs:OGC:1.3:CRS84" } },
"features": [
{ "type": "Feature", "properties": { "id": "relation/1359387", "name": "amtrak vermonter: washington => saint albans", "address": null, "category": [ "long_distance" ] }, "geometry": { "type": "LineString", "coordinates": [ ] } },
{ "type": "Feature", "properties": { "id": "relation/1809808", "name": "amtrak crescent: new orleans => new york", "address": null, "category": [ "night" ] }, "geometry": { "type": "LineString", "coordinates": [ ] } },
{ "type": "Feature", "properties": { "id": "relation/2807121", "name": "amtrak cardinal: chicago => new york", "address": null, "category": [ "night" ] }, "geometry": { "type": "LineString", "coordinates": [ ] } },
{ "type": "Feature", "properties": { "id": "relation/4044002", "name": "amtrak pennsylvanian: pittsburgh => new york", "address": null, "category": [ "long_distance" ] }, "geometry": { "type": "MultiLineString", "coordinates": [ [ ], [ ], [ ], [ ] ] } },
{ "type": "Feature", "properties": { "id": "relation/11961030", "name": "amtrak vermonter: washington => saint albans", "address": null, "category": [ "long_distance" ] }, "geometry": { "type": "LineString", "coordinates": [ ] } },
{ "type": "Feature", "properties": { "id": "relation/11996020", "name": "amtrak carolinian: charlotte => new york", "address": null, "category": [ "long_distance" ] }, "geometry": { "type": "LineString", "coordinates": [ ] } },
{ "type": "Feature", "properties": { "id": "relation/12006219", "name": "amtrak palmetto: savannah => new york", "address": null, "category": [ "long_distance" ] }, "geometry": { "type": "LineString", "coordinates": [ ] } },
{ "type": "Feature", "properties": { "id": "relation/12011066", "name": "amtrak silver star: miami => new york", "address": null, "category": [ "night" ] }, "geometry": { "type": "LineString", "coordinates": [ ] } },
{ "type": "Feature", "properties": { "id": "relation/1359387", "name": "amtrak vermonter: washington => saint albans", "address": null, "category": [ "long_distance" ] }, "geometry": { "type": "Point", "coordinates": [ -74.6613468, 41.8551581 ] } },
{ "type": "Feature", "properties": { "id": "relation/1809808", "name": "amtrak crescent: new orleans => new york", "address": null, "category": [ "night" ] }, "geometry": { "type": "Point", "coordinates": [ -82.0536109, 35.3594356 ] } },
{ "type": "Feature", "properties": { "id": "relation/1897938", "name": "amtrak silver star: new york => miami", "address": null, "category": [ "night" ] }, "geometry": { "type": "Point", "coordinates": [ -78.2214498, 33.3108798 ] } },
{ "type": "Feature", "properties": { "id": "relation/1900976", "name": "amtrak carolinian: new york => charlotte", "address": null, "category": [ "long_distance" ] }, "geometry": { "type": "Point", "coordinates": [ -77.408237, 38.0062023 ] } },
{ "type": "Feature", "properties": { "id": "relation/2648181", "name": "amtrak palmetto: new york => savannah", "address": null, "category": [ "long_distance" ] }, "geometry": { "type": "Point", "coordinates": [ -77.5912638, 36.427959 ] } },
{ "type": "Feature", "properties": { "id": "relation/2807121", "name": "amtrak cardinal: chicago => new york", "address": null, "category": [ "night" ] }, "geometry": { "type": "Point", "coordinates": [ -80.8162033, 39.7599842 ] } },
{ "type": "Feature", "properties": { "id": "relation/4044002", "name": "amtrak pennsylvanian: pittsburgh => new york", "address": null, "category": [ "long_distance" ] }, "geometry": { "type": "Point", "coordinates": [ -76.9915656, 40.3605826 ] } },
{ "type": "Feature", "properties": { "id": "relation/4141515", "name": "american swedish historical museum", "address": "1900, pattison avenue, philadelphia, 19145", "category": [ "museum", "yes" ] }, "geometry": { "type": "Point", "coordinates": [ -75.1810432, 39.9059532 ] } },
{ "type": "Feature", "properties": { "id": "relation/4676513", "name": "hotel monaco philadelphia, a kimpton hotel", "address": "433, chestnut street, philadelphia, pa, 19106", "category": [ "hotel", "yes" ] }, "geometry": { "type": "Point", "coordinates": [ -75.1488424, 39.9493231 ] } },
{ "type": "Feature", "properties": { "id": "relation/4676515", "name": "federal reserve bank of philadelphia", "address": "10, north independence mall west, philadelphia, 19106", "category": [ "government", "yes" ] }, "geometry": { "type": "Point", "coordinates": [ -75.1506822, 39.9533782 ] } },
{ "type": "Feature", "properties": { "id": "relation/4679411", "name": "the inn at the league", "address": "1450, sansom street, philadelphia, 19102", "category": [ "hotel", "yes" ] }, "geometry": { "type": "Point", "coordinates": [ -75.1652591, 39.9500595 ] } },
{ "type": "Feature", "properties": { "id": "relation/5231601", "name": "penn museum", "address": "3260, south street, philadelphia, 19104", "category": [ "museum", "yes" ] }, "geometry": { "type": "Point", "coordinates": [ -75.1912858, 39.9492817 ] } },
{ "type": "Feature", "properties": { "id": "relation/6172683", "name": "hawthorn suites", "address": "7890, penrose avenue, philadelphia, pa, 19153", "category": [ "hotel", "yes", "hawthorn suites" ] }, "geometry": { "type": "Point", "coordinates": [ -75.2308206, 39.8884839 ] } },
{ "type": "Feature", "properties": { "id": "relation/10647442", "name": "flixbus 2602: new york city => washington, d.c.", "address": null, "category": [ "long_distance" ] }, "geometry": { "type": "Point", "coordinates": [ -75.5020723, 39.8383728 ] } },
{ "type": "Feature", "properties": { "id": "relation/10647445", "name": "flixbus 2602: washington, d.c. => new york city", "address": null, "category": [ "long_distance" ] }, "geometry": { "type": "Point", "coordinates": [ -75.5019474, 39.8385691 ] } },
{ "type": "Feature", "properties": { "id": "relation/10653417", "name": "flixbus n2610: washington, d.c. => boston", "address": null, "category": [ "long_distance" ] }, "geometry": { "type": "Point", "coordinates": [ -74.033062, 40.627549 ] } },
{ "type": "Feature", "properties": { "id": "relation/10653418", "name": "flixbus n2610: boston => washington, d.c.", "address": null, "category": [ "long_distance" ] }, "geometry": { "type": "Point", "coordinates": [ -74.033521, 40.6271289 ] } },
{ "type": "Feature", "properties": { "id": "relation/10792729", "name": "flixbus 2680: new york city => columbus", "address": null, "category": [ "long_distance" ] }, "geometry": { "type": "Point", "coordinates": [ -78.4958551, 40.3561202 ] } },
{ "type": "Feature", "properties": { "id": "relation/10792730", "name": "flixbus 2680: columbus => new york city", "address": null, "category": [ "long_distance" ] }, "geometry": { "type": "Point", "coordinates": [ -78.5068671, 40.3556894 ] } },
{ "type": "Feature", "properties": { "id": "relation/11030332", "name": "the church of jesus christ of latter-day saints", "address": null, "category": [ "religion", "church" ] }, "geometry": { "type": "Point", "coordinates": [ -75.1668255, 39.9590782 ] } },
{ "type": "Feature", "properties": { "id": "relation/11913832", "name": "amtrak pennsylvanian: new york => pittsburgh", "address": null, "category": [ "long_distance" ] }, "geometry": { "type": "Point", "coordinates": [ -76.9913303, 40.3606433 ] } },
{ "type": "Feature", "properties": { "id": "relation/11921087", "name": "amtrak vermonter: saint albans => washington", "address": null, "category": [ "long_distance" ] }, "geometry": { "type": "Point", "coordinates": [ -74.6613468, 41.8551581 ] } },
{ "type": "Feature", "properties": { "id": "relation/11961030", "name": "amtrak vermonter: washington => saint albans", "address": null, "category": [ "long_distance" ] }, "geometry": { "type": "Point", "coordinates": [ -74.6613468, 41.8551581 ] } },
{ "type": "Feature", "properties": { "id": "relation/11961031", "name": "amtrak vermonter: saint albans => washington", "address": null, "category": [ "long_distance" ] }, "geometry": { "type": "Point", "coordinates": [ -74.6613468, 41.8551581 ] } },
{ "type": "Feature", "properties": { "id": "relation/11996020", "name": "amtrak carolinian: charlotte => new york", "address": null, "category": [ "long_distance" ] }, "geometry": { "type": "Point", "coordinates": [ -77.408237, 38.0061801 ] } },
{ "type": "Feature", "properties": { "id": "relation/12006219", "name": "amtrak palmetto: savannah => new york", "address": null, "category": [ "long_distance" ] }, "geometry": { "type": "Point", "coordinates": [ -77.5912431, 36.4279368 ] } },
{ "type": "Feature", "properties": { "id": "relation/12011066", "name": "amtrak silver star: miami => new york", "address": null, "category": [ "night" ] }, "geometry": { "type": "Point", "coordinates": [ -78.2214498, 33.3108576 ] } },
{ "type": "Feature", "properties": { "id": "relation/12037189", "name": "amtrak cardinal: new york => chicago", "address": null, "category": [ "night" ] }, "geometry": { "type": "Point", "coordinates": [ -80.8161805, 39.7599842 ] } },
{ "type": "Feature", "properties": { "id": "relation/12041225", "name": "amtrak crescent: new york => new orleans", "address": null, "category": [ "night" ] }, "geometry": { "type": "Point", "coordinates": [ -82.0536109, 35.3594578 ] } },
{ "type": "Feature", "properties": { "id": "way/12109133", "name": "north beechwood street", "address": null, "category": [ "alley" ] }, "geometry": { "type": "Point", "coordinates": [ -75.1757139, 39.9562597 ] } },
{ "type": "Feature", "properties": { "id": "way/12109729", "name": "norfolk street", "address": null, "category": [ "alley" ] }, "geometry": { "type": "Point", "coordinates": [ -75.1809396, 39.9421361 ] } },
{ "type": "Feature", "properties": { "id": "way/12109730", "name": "kauffman street", "address": null, "category": [ "alley" ] }, "geometry": { "type": "Point", "coordinates": [ -75.1808878, 39.9423906 ] } },
{ "type": "Feature", "properties": { "id": "way/12109959", "name": "farnsworth street", "address": null, "category": [ "alley" ] }, "geometry": { "type": "Point", "coordinates": [ -75.0698261, 40.0298789 ] } },
{ "type": "Feature", "properties": { "id": "way/12111307", "name": "waverly street", "address": null, "category": [ "alley" ] }, "geometry": { "type": "Point", "coordinates": [ -75.1521733, 39.943693 ] } },
{ "type": "Feature", "properties": { "id": "way/12111583", "name": "boudine street", "address": null, "category": [ "alley" ] }, "geometry": { "type": "Point", "coordinates": [ -75.1452932, 39.9496738 ] } },
{ "type": "Feature", "properties": { "id": "way/12112698", "name": "north 12th street", "address": null, "category": [ "disused_tram" ] }, "geometry": { "type": "Point", "coordinates": [ -75.1533208, 39.9819926 ] } },
{ "type": "Feature", "properties": { "id": "way/12113320", "name": "yocum driveway", "address": null, "category": [ "alley" ] }, "geometry": { "type": "Point", "coordinates": [ -75.2256616, 39.9321688 ] } },
{ "type": "Feature", "properties": { "id": "way/12113658", "name": "josephine street", "address": null, "category": [ "alley" ] }, "geometry": { "type": "Point", "coordinates": [ -75.0463392, 40.0255071 ] } },
{ "type": "Feature", "properties": { "id": "way/12114112", "name": "south fairhill street", "address": null, "category": [ "alley" ] }, "geometry": { "type": "Point", "coordinates": [ -75.1521094, 39.9410405 ] } },
{ "type": "Feature", "properties": { "id": "way/12114370", "name": "bowers street", "address": null, "category": [ "alley" ] }, "geometry": { "type": "Point", "coordinates": [ -75.1655391, 39.9692065 ] } },
{ "type": "Feature", "properties": { "id": "way/12114742", "name": "alter street", "address": null, "category": [ "alley" ] }, "geometry": { "type": "Point", "coordinates": [ -75.1862991, 39.9396618 ] } },
{ "type": "Feature", "properties": { "id": "way/12114975", "name": "appletree street", "address": null, "category": [ "alley" ] }, "geometry": { "type": "Point", "coordinates": [ -75.1640171, 39.9551255 ] } },
{ "type": "Feature", "properties": { "id": "way/12114998", "name": "south fairhill street", "address": null, "category": [ "alley" ] }, "geometry": { "type": "Point", "coordinates": [ -75.153201, 39.936138 ] } },
{ "type": "Feature", "properties": { "id": "way/12115021", "name": "south reese street", "address": null, "category": [ "alley" ] }, "geometry": { "type": "Point", "coordinates": [ -75.151076, 39.9423882 ] } },
{ "type": "Feature", "properties": { "id": "way/12115031", "name": "south reese street", "address": null, "category": [ "alley" ] }, "geometry": { "type": "Point", "coordinates": [ -75.1525685, 39.935607 ] } },
{ "type": "Feature", "properties": { "id": "way/12115038", "name": "south reese street", "address": null, "category": [ "alley" ] }, "geometry": { "type": "Point", "coordinates": [ -75.151371, 39.941226 ] } },
{ "type": "Feature", "properties": { "id": "way/12115043", "name": "south reese street", "address": null, "category": [ "alley" ] }, "geometry": { "type": "Point", "coordinates": [ -75.150605, 39.9445125 ] } },
{ "type": "Feature", "properties": { "id": "way/12115833", "name": "little boys court", "address": null, "category": [ "alley" ] }, "geometry": { "type": "Point", "coordinates": [ -75.1440217, 39.9516901 ] } },
{ "type": "Feature", "properties": { "id": "way/12116606", "name": "south jessup street", "address": null, "category": [ "alley" ] }, "geometry": { "type": "Point", "coordinates": [ -75.1592762, 39.9493437 ] } },
{ "type": "Feature", "properties": { "id": "way/12116716", "name": "ionic street", "address": null, "category": [ "alley" ] }, "geometry": { "type": "Point", "coordinates": [ -75.1787583, 39.9523442 ] } },
{ "type": "Feature", "properties": { "id": "way/12116719", "name": "ionic street", "address": null, "category": [ "alley" ] }, "geometry": { "type": "Point", "coordinates": [ -75.1532389, 39.9490234 ] } },
{ "type": "Feature", "properties": { "id": "way/12116721", "name": "ionic street", "address": null, "category": [ "alley" ] }, "geometry": { "type": "Point", "coordinates": [ -75.2106432, 39.9562213 ] } },
{ "type": "Feature", "properties": { "id": "way/12116722", "name": "ionic street", "address": null, "category": [ "alley" ] }, "geometry": { "type": "Point", "coordinates": [ -75.1740463, 39.9517084 ] } },
{ "type": "Feature", "properties": { "id": "way/12116724", "name": "ionic street", "address": null, "category": [ "alley" ] }, "geometry": { "type": "Point", "coordinates": [ -75.168875, 39.9509613 ] } },
{ "type": "Feature", "properties": { "id": "way/12116726", "name": "ionic street", "address": null, "category": [ "alley" ] }, "geometry": { "type": "Point", "coordinates": [ -75.1660998, 39.9506455 ] } },
{ "type": "Feature", "properties": { "id": "way/12116728", "name": "ionic street", "address": null, "category": [ "alley" ] }, "geometry": { "type": "Point", "coordinates": [ -75.1433766, 39.9478029 ] } },
{ "type": "Feature", "properties": { "id": "way/12116846", "name": "chancellor street", "address": null, "category": [ "alley" ] }, "geometry": { "type": "Point", "coordinates": [ -75.161413, 39.9485921 ] } },
{ "type": "Feature", "properties": { "id": "way/12116869", "name": "chancellor street", "address": null, "category": [ "alley" ] }, "geometry": { "type": "Point", "coordinates": [ -75.1594655, 39.9482659 ] } },
{ "type": "Feature", "properties": { "id": "way/12116997", "name": "manning street", "address": null, "category": [ "alley" ] }, "geometry": { "type": "Point", "coordinates": [ -75.1788529, 39.9491116 ] } },
{ "type": "Feature", "properties": { "id": "way/12117016", "name": "manning street", "address": null, "category": [ "alley" ] }, "geometry": { "type": "Point", "coordinates": [ -75.1574476, 39.9463833 ] } },
{ "type": "Feature", "properties": { "id": "way/12117026", "name": "manning street", "address": null, "category": [ "alley" ] }, "geometry": { "type": "Point", "coordinates": [ -75.1491682, 39.9454121 ] } },
{ "type": "Feature", "properties": { "id": "way/12117285", "name": "kingsessing mall", "address": null, "category": [ "driveway" ] }, "geometry": { "type": "Point", "coordinates": [ -75.208528, 39.9468551 ] } },
{ "type": "Feature", "properties": { "id": "way/12117552", "name": "south beechwood street", "address": null, "category": [ "alley" ] }, "geometry": { "type": "Point", "coordinates": [ -75.1767345, 39.9515094 ] } },
{ "type": "Feature", "properties": { "id": "way/12118410", "name": "cypress street", "address": null, "category": [ "alley" ] }, "geometry": { "type": "Point", "coordinates": [ -75.18016, 39.9485307 ] } },
{ "type": "Feature", "properties": { "id": "way/12118429", "name": "cypress street", "address": null, "category": [ "alley" ] }, "geometry": { "type": "Point", "coordinates": [ -75.1693236, 39.947105 ] } },
{ "type": "Feature", "properties": { "id": "way/12118434", "name": "cypress street", "address": null, "category": [ "alley" ] }, "geometry": { "type": "Point", "coordinates": [ -75.1600248, 39.9457134 ] } },
{ "type": "Feature", "properties": { "id": "way/12119203", "name": "south sheridan street", "address": null, "category": [ "alley" ] }, "geometry": { "type": "Point", "coordinates": [ -75.1546495, 39.9375215 ] } },
{ "type": "Feature", "properties": { "id": "way/12119270", "name": "price street", "address": null, "category": [ "driveway" ] }, "geometry": { "type": "Point", "coordinates": [ -75.1688121, 40.0435448 ] } },
{ "type": "Feature", "properties": { "id": "way/12119444", "name": "franklin place", "address": null, "category": [ "alley" ] }, "geometry": { "type": "Point", "coordinates": [ -75.1504286, 39.9621901 ] } },
{ "type": "Feature", "properties": { "id": "way/12120328", "name": "randolph court", "address": null, "category": [ "alley" ] }, "geometry": { "type": "Point", "coordinates": [ -75.1514361, 39.9425629 ] } },
{ "type": "Feature", "properties": { "id": "way/12120457", "name": "field street", "address": null, "category": [ "alley" ] }, "geometry": { "type": "Point", "coordinates": [ -75.1645645, 39.9696746 ] } },
{ "type": "Feature", "properties": { "id": "way/12122518", "name": "south warnock street", "address": null, "category": [ "alley" ] }, "geometry": { "type": "Point", "coordinates": [ -75.1586304, 39.9465455 ] } },
{ "type": "Feature", "properties": { "id": "way/12122807", "name": "south hicks street", "address": null, "category": [ "alley" ] }, "geometry": { "type": "Point", "coordinates": [ -75.1673569, 39.9452916 ] } },
{ "type": "Feature", "properties": { "id": "way/12123069", "name": "south mole street", "address": null, "category": [ "alley" ] }, "geometry": { "type": "Point", "coordinates": [ -75.1681009, 39.9453824 ] } },
{ "type": "Feature", "properties": { "id": "way/12123648", "name": "tryon street", "address": null, "category": [ "alley" ] }, "geometry": { "type": "Point", "coordinates": [ -75.1776172, 39.9459202 ] } },
{ "type": "Feature", "properties": { "id": "way/12124847", "name": "shamokin street", "address": null, "category": [ "alley" ] }, "geometry": { "type": "Point", "coordinates": [ -75.1695123, 39.9609458 ] } },
{ "type": "Feature", "properties": { "id": "way/12132723", "name": "east dakota street", "address": null, "category": [ "alley" ] }, "geometry": { "type": "Point", "coordinates": [ -75.1269196, 39.9792843 ] } },
{ "type": "Feature", "properties": { "id": "way/12133607", "name": "south june court", "address": null, "category": [ "alley" ] }, "geometry": { "type": "Point", "coordinates": [ -75.2137879, 39.9648589 ] } },
{ "type": "Feature", "properties": { "id": "way/12133944", "name": "south darien street", "address": null, "category": [ "alley" ] }, "geometry": { "type": "Point", "coordinates": [ -75.1583015, 39.934657 ] } },
{ "type": "Feature", "properties": { "id": "way/12133948", "name": "south darien street", "address": null, "category": [ "alley" ] }, "geometry": { "type": "Point", "coordinates": [ -75.1586885, 39.9314891 ] } },
{ "type": "Feature", "properties": { "id": "way/12133978", "name": "south darien street", "address": null, "category": [ "alley" ] }, "geometry": { "type": "Point", "coordinates": [ -75.1565833, 39.9411695 ] } },
{ "type": "Feature", "properties": { "id": "way/12134018", "name": "south darien street", "address": null, "category": [ "alley" ] }, "geometry": { "type": "Point", "coordinates": [ -75.1562066, 39.9428719 ] } },
{ "type": "Feature", "properties": { "id": "way/12134050", "name": "kenilworth street", "address": null, "category": [ "alley" ] }, "geometry": { "type": "Point", "coordinates": [ -75.1518315, 39.940719 ] } },
{ "type": "Feature", "properties": { "id": "way/12134054", "name": "kenilworth street", "address": null, "category": [ "alley" ] }, "geometry": { "type": "Point", "coordinates": [ -75.1566015, 39.9413769 ] } },
{ "type": "Feature", "properties": { "id": "way/12134057", "name": "kenilworth street", "address": null, "category": [ "alley" ] }, "geometry": { "type": "Point", "coordinates": [ -75.1671104, 39.9426579 ] } },
{ "type": "Feature", "properties": { "id": "way/12134080", "name": "sartain street", "address": null, "category": [ "alley" ] }, "geometry": { "type": "Point", "coordinates": [ -75.1616111, 39.9417827 ] } },
{ "type": "Feature", "properties": { "id": "way/12134084", "name": "wendle court", "address": null, "category": [ "alley" ] }, "geometry": { "type": "Point", "coordinates": [ -75.1484255, 39.9620765 ] } },
{ "type": "Feature", "properties": { "id": "way/12134176", "name": "saint james place", "address": null, "category": [ "alley" ] }, "geometry": { "type": "Point", "coordinates": [ -75.1478369, 39.9459948 ] } },
{ "type": "Feature", "properties": { "id": "way/12135490", "name": "north darien street", "address": null, "category": [ "alley" ] }, "geometry": { "type": "Point", "coordinates": [ -75.1493995, 39.9754059 ] } },
{ "type": "Feature", "properties": { "id": "way/12136534", "name": "appletree court", "address": null, "category": [ "alley" ] }, "geometry": { "type": "Point", "coordinates": [ -75.14187, 39.9523715 ] } },
{ "type": "Feature", "properties": { "id": "way/12138624", "name": "elbow lane", "address": null, "category": [ "alley" ] }, "geometry": { "type": "Point", "coordinates": [ -75.145481, 39.9492917 ] } },
{ "type": "Feature", "properties": { "id": "way/12138916", "name": "south bobine street", "address": null, "category": [ "alley" ] }, "geometry": { "type": "Point", "coordinates": [ -75.1484488, 39.9348059 ] } },
{ "type": "Feature", "properties": { "id": "way/12138982", "name": "brandywine street", "address": null, "category": [ "alley" ] }, "geometry": { "type": "Point", "coordinates": [ -75.1586566, 39.9624765 ] } },
{ "type": "Feature", "properties": { "id": "way/12139372", "name": "west george street", "address": null, "category": [ "alley" ] }, "geometry": { "type": "Point", "coordinates": [ -75.1813676, 39.9732623 ] } },
{ "type": "Feature", "properties": { "id": "way/12139484", "name": "loxley court", "address": null, "category": [ "alley" ] }, "geometry": { "type": "Point", "coordinates": [ -75.1455776, 39.9530031 ] } },
{ "type": "Feature", "properties": { "id": "way/12139500", "name": "stanwood court", "address": null, "category": [ "alley" ] }, "geometry": { "type": "Point", "coordinates": [ -75.023329, 40.0412706 ] } },
{ "type": "Feature", "properties": { "id": "way/12140634", "name": "east physic street", "address": null, "category": [ "alley" ] }, "geometry": { "type": "Point", "coordinates": [ -75.1775339, 40.0438999 ] } },
{ "type": "Feature", "properties": { "id": "way/12140671", "name": "kershaw street", "address": null, "category": [ "alley" ] }, "geometry": { "type": "Point", "coordinates": [ -75.1799876, 39.9770429 ] } },
{ "type": "Feature", "properties": { "id": "way/12142306", "name": "north croskey street", "address": null, "category": [ "alley" ] }, "geometry": { "type": "Point", "coordinates": [ -75.1763247, 39.9577102 ] } },
{ "type": "Feature", "properties": { "id": "way/12143461", "name": "league street", "address": null, "category": [ "alley" ] }, "geometry": { "type": "Point", "coordinates": [ -75.152863, 39.9351665 ] } },
{ "type": "Feature", "properties": { "id": "way/12143473", "name": "league street", "address": null, "category": [ "alley" ] }, "geometry": { "type": "Point", "coordinates": [ -75.1535995, 39.9353915 ] } },
{ "type": "Feature", "properties": { "id": "way/12143492", "name": "south mildred street", "address": null, "category": [ "alley" ] }, "geometry": { "type": "Point", "coordinates": [ -75.1583165, 39.9313857 ] } },
{ "type": "Feature", "properties": { "id": "way/12143496", "name": "south mildred street", "address": null, "category": [ "alley" ] }, "geometry": { "type": "Point", "coordinates": [ -75.1578749, 39.9336881 ] } },
{ "type": "Feature", "properties": { "id": "way/12143611", "name": "south perth street", "address": null, "category": [ "alley" ] }, "geometry": { "type": "Point", "coordinates": [ -75.1552955, 39.9410055 ] } },
{ "type": "Feature", "properties": { "id": "way/12148283", "name": "north chang street", "address": null, "category": [ "alley" ] }, "geometry": { "type": "Point", "coordinates": [ -75.1802747, 39.9730418 ] } },
{ "type": "Feature", "properties": { "id": "way/12148319", "name": "providence court", "address": null, "category": [ "alley" ] }, "geometry": { "type": "Point", "coordinates": [ -75.154797, 39.9560385 ] } },
{ "type": "Feature", "properties": { "id": "way/12148965", "name": "sarah street", "address": null, "category": [ "alley" ] }, "geometry": { "type": "Point", "coordinates": [ -75.1339026, 39.9674151 ] } },
{ "type": "Feature", "properties": { "id": "way/12149528", "name": "south 81st street", "address": null, "category": [ "parking_aisle" ] }, "geometry": { "type": "Point", "coordinates": [ -75.2470263, 39.9004183 ] } },
{ "type": "Feature", "properties": { "id": "way/12149634", "name": "north 60th street", "address": null, "category": [ "alley" ] }, "geometry": { "type": "Point", "coordinates": [ -75.2243573, 39.9277319 ] } },
{ "type": "Feature", "properties": { "id": "way/12150381", "name": "south 11th street", "address": null, "category": [ "disused_tram" ] }, "geometry": { "type": "Point", "coordinates": [ -75.1644055, 39.9238554 ] } },
{ "type": "Feature", "properties": { "id": "way/12150680", "name": "south clifton street", "address": null, "category": [ "alley" ] }, "geometry": { "type": "Point", "coordinates": [ -75.1601605, 39.9408692 ] } },
{ "type": "Feature", "properties": { "id": "way/12150682", "name": "south clifton street", "address": null, "category": [ "alley" ] }, "geometry": { "type": "Point", "coordinates": [ -75.1581012, 39.950819 ] } },
{ "type": "Feature", "properties": { "id": "way/12150950", "name": "elfreth's alley", "address": null, "category": [ "attraction", "alley" ] }, "geometry": { "type": "Point", "coordinates": [ -75.1423813, 39.9527724 ] } },
{ "type": "Feature", "properties": { "id": "way/12151001", "name": "north opal street", "address": null, "category": [ "alley" ] }, "geometry": { "type": "Point", "coordinates": [ -75.1690398, 39.9707513 ] } },
{ "type": "Feature", "properties": { "id": "way/12151205", "name": "hutton street", "address": null, "category": [ "alley" ] }, "geometry": { "type": "Point", "coordinates": [ -75.2086275, 39.964109 ] } },
{ "type": "Feature", "properties": { "id": "way/12151339", "name": "north bodine street", "address": null, "category": [ "alley" ] }, "geometry": { "type": "Point", "coordinates": [ -75.1426135, 39.9620601 ] } },
{ "type": "Feature", "properties": { "id": "way/12151351", "name": "north bodine street", "address": null, "category": [ "alley" ] }, "geometry": { "type": "Point", "coordinates": [ -75.1440288, 39.9558114 ] } },
{ "type": "Feature", "properties": { "id": "way/12151955", "name": "mascher street", "address": null, "category": [ "alley" ] }, "geometry": { "type": "Point", "coordinates": [ -75.1462257, 39.9355861 ] } },
{ "type": "Feature", "properties": { "id": "way/12152193", "name": "carlton street", "address": null, "category": [ "alley" ] }, "geometry": { "type": "Point", "coordinates": [ -75.1634279, 39.9593675 ] } },
{ "type": "Feature", "properties": { "id": "way/12152197", "name": "carlton street", "address": null, "category": [ "alley" ] }, "geometry": { "type": "Point", "coordinates": [ -75.1661694, 39.9597054 ] } },
{ "type": "Feature", "properties": { "id": "way/12152234", "name": "delancey street", "address": null, "category": [ "alley" ] }, "geometry": { "type": "Point", "coordinates": [ -75.1678701, 39.9465759 ] } },
{ "type": "Feature", "properties": { "id": "way/12152262", "name": "delancey place", "address": null, "category": [ "alley" ] }, "geometry": { "type": "Point", "coordinates": [ -75.165823, 39.9463207 ] } },
{ "type": "Feature", "properties": { "id": "way/12152752", "name": "butler avenue", "address": null, "category": [ "alley" ] }, "geometry": { "type": "Point", "coordinates": [ -75.1634889, 39.9458494 ] } },
{ "type": "Feature", "properties": { "id": "way/12153100", "name": "alden avenue", "address": null, "category": [ "alley" ] }, "geometry": { "type": "Point", "coordinates": [ -75.2313779, 40.0321355 ] } },
{ "type": "Feature", "properties": { "id": "way/12153950", "name": "filbert street", "address": null, "category": [ "alley" ] }, "geometry": { "type": "Point", "coordinates": [ -75.2065638, 39.9581984 ] } },
{ "type": "Feature", "properties": { "id": "way/12154212", "name": "south percy street", "address": null, "category": [ "alley" ] }, "geometry": { "type": "Point", "coordinates": [ -75.1580072, 39.9403127 ] } },
{ "type": "Feature", "properties": { "id": "way/12154833", "name": "walter street", "address": null, "category": [ "alley" ] }, "geometry": { "type": "Point", "coordinates": [ -75.1946185, 39.9215174 ] } },
{ "type": "Feature", "properties": { "id": "way/12155166", "name": "reno street", "address": null, "category": [ "alley" ] }, "geometry": { "type": "Point", "coordinates": [ -75.1642008, 39.9687356 ] } },
{ "type": "Feature", "properties": { "id": "way/12155193", "name": "reno street", "address": null, "category": [ "alley" ] }, "geometry": { "type": "Point", "coordinates": [ -75.1455116, 39.9648659 ] } },
{ "type": "Feature", "properties": { "id": "way/12155467", "name": "mountain street", "address": null, "category": [ "alley" ] }, "geometry": { "type": "Point", "coordinates": [ -75.1478893, 39.9267507 ] } },
{ "type": "Feature", "properties": { "id": "way/12155474", "name": "cardella place", "address": null, "category": [ "parking_aisle" ] }, "geometry": { "type": "Point", "coordinates": [ -75.0208242, 40.1285273 ] } },
{ "type": "Feature", "properties": { "id": "way/12155875", "name": "wilcox street", "address": null, "category": [ "alley" ] }, "geometry": { "type": "Point", "coordinates": [ -75.1734486, 39.9649682 ] } },
{ "type": "Feature", "properties": { "id": "way/12155884", "name": "clay street", "address": null, "category": [ "alley" ] }, "geometry": { "type": "Point", "coordinates": [ -75.1572076, 39.9632422 ] } },
{ "type": "Feature", "properties": { "id": "way/12156951", "name": "east gordon street", "address": null, "category": [ "alley" ] }, "geometry": { "type": "Point", "coordinates": [ -75.1236821, 39.976316 ] } },
{ "type": "Feature", "properties": { "id": "way/12157129", "name": "south alder street", "address": null, "category": [ "alley" ] }, "geometry": { "type": "Point", "coordinates": [ -75.1582001, 39.9466453 ] } },
{ "type": "Feature", "properties": { "id": "way/12157134", "name": "moravian street", "address": null, "category": [ "alley" ] }, "geometry": { "type": "Point", "coordinates": [ -75.1560427, 39.9487549 ] } },
{ "type": "Feature", "properties": { "id": "way/12157138", "name": "moravian street", "address": null, "category": [ "alley" ] }, "geometry": { "type": "Point", "coordinates": [ -75.2107772, 39.9555755 ] } },
{ "type": "Feature", "properties": { "id": "way/12157142", "name": "moravian street", "address": null, "category": [ "alley" ] }, "geometry": { "type": "Point", "coordinates": [ -75.1729247, 39.9509134 ] } },
{ "type": "Feature", "properties": { "id": "way/12157149", "name": "moravian street", "address": null, "category": [ "alley" ] }, "geometry": { "type": "Point", "coordinates": [ -75.1598825, 39.9492576 ] } },
{ "type": "Feature", "properties": { "id": "way/12157552", "name": "apostolic square", "address": null, "category": [ "alley" ] }, "geometry": { "type": "Point", "coordinates": [ -75.1779317, 39.9440939 ] } },
{ "type": "Feature", "properties": { "id": "way/12157751", "name": "sloan street", "address": null, "category": [ "alley" ] }, "geometry": { "type": "Point", "coordinates": [ -75.2029649, 39.9697753 ] } },
{ "type": "Feature", "properties": { "id": "way/12158809", "name": "sansom walk", "address": null, "category": [ "alley" ] }, "geometry": { "type": "Point", "coordinates": [ -75.1431778, 39.9472472 ] } },
{ "type": "Feature", "properties": { "id": "way/12159191", "name": "tate place", "address": null, "category": [ "alley" ] }, "geometry": { "type": "Point", "coordinates": [ -75.2432737, 39.9179052 ] } },
{ "type": "Feature", "properties": { "id": "way/12159305", "name": "willings alley", "address": null, "category": [ "alley" ] }, "geometry": { "type": "Point", "coordinates": [ -75.1473145, 39.9464272 ] } },
{ "type": "Feature", "properties": { "id": "way/12159329", "name": "flanders road", "address": null, "category": [ "alley" ] }, "geometry": { "type": "Point", "coordinates": [ -75.2542935, 39.972959 ] } },
{ "type": "Feature", "properties": { "id": "way/12159400", "name": "arcadia street", "address": null, "category": [ "alley" ] }, "geometry": { "type": "Point", "coordinates": [ -75.1250828, 39.9846713 ] } },
{ "type": "Feature", "properties": { "id": "way/12159451", "name": "ranstead street", "address": null, "category": [ "alley" ] }, "geometry": { "type": "Point", "coordinates": [ -75.172008, 39.952402 ] } },
{ "type": "Feature", "properties": { "id": "way/12159456", "name": "ranstead street", "address": null, "category": [ "alley" ] }, "geometry": { "type": "Point", "coordinates": [ -75.1694721, 39.9519936 ] } },
{ "type": "Feature", "properties": { "id": "way/12159474", "name": "ranstead street", "address": null, "category": [ "alley" ] }, "geometry": { "type": "Point", "coordinates": [ -75.1729964, 39.9525424 ] } },
{ "type": "Feature", "properties": { "id": "way/12159477", "name": "ranstead street", "address": null, "category": [ "alley" ] }, "geometry": { "type": "Point", "coordinates": [ -75.1652489, 39.9514061 ] } },
{ "type": "Feature", "properties": { "id": "way/12159480", "name": "ranstead street", "address": null, "category": [ "driveway" ] }, "geometry": { "type": "Point", "coordinates": [ -75.1567973, 39.9504225 ] } },
{ "type": "Feature", "properties": { "id": "way/12159504", "name": "north wiota street", "address": null, "category": [ "alley" ] }, "geometry": { "type": "Point", "coordinates": [ -75.2032321, 39.9651059 ] } },
{ "type": "Feature", "properties": { "id": "way/12159928", "name": "pig alley", "address": null, "category": [ "alley" ] }, "geometry": { "type": "Point", "coordinates": [ -75.1755434, 39.9682818 ] } },
{ "type": "Feature", "properties": { "id": "way/12160286", "name": "forest place", "address": null, "category": [ "alley" ] }, "geometry": { "type": "Point", "coordinates": [ -75.1464649, 39.9407947 ] } },
{ "type": "Feature", "properties": { "id": "way/12160794", "name": "marshall court", "address": null, "category": [ "alley" ] }, "geometry": { "type": "Point", "coordinates": [ -75.149379, 39.962104 ] } },
{ "type": "Feature", "properties": { "id": "way/12160798", "name": "marshall court", "address": null, "category": [ "alley" ] }, "geometry": { "type": "Point", "coordinates": [ -75.1489895, 39.9616597 ] } },
{ "type": "Feature", "properties": { "id": "way/12160799", "name": "marshall court", "address": null, "category": [ "alley" ] }, "geometry": { "type": "Point", "coordinates": [ -75.1485425, 39.9618066 ] } },
{ "type": "Feature", "properties": { "id": "way/12161206", "name": "martha street", "address": null, "category": [ "alley" ] }, "geometry": { "type": "Point", "coordinates": [ -75.1266025, 39.9831515 ] } },
{ "type": "Feature", "properties": { "id": "way/12161514", "name": "harpers place", "address": null, "category": [ "alley" ] }, "geometry": { "type": "Point", "coordinates": [ -75.1466155, 39.940641 ] } },
{ "type": "Feature", "properties": { "id": "way/12163293", "name": "little cresson street", "address": null, "category": [ "alley" ] }, "geometry": { "type": "Point", "coordinates": [ -75.2125297, 40.017938 ] } },
{ "type": "Feature", "properties": { "id": "way/12163328", "name": "lemon street", "address": null, "category": [ "alley" ] }, "geometry": { "type": "Point", "coordinates": [ -75.1546919, 39.9636752 ] } },
{ "type": "Feature", "properties": { "id": "way/12163665", "name": "panama street", "address": null, "category": [ "alley" ] }, "geometry": { "type": "Point", "coordinates": [ -75.1797544, 39.9477645 ] } },
{ "type": "Feature", "properties": { "id": "way/12163671", "name": "panama street", "address": null, "category": [ "alley" ] }, "geometry": { "type": "Point", "coordinates": [ -75.1702093, 39.9465765 ] } },
{ "type": "Feature", "properties": { "id": "way/12163676", "name": "panama street", "address": null, "category": [ "alley" ] }, "geometry": { "type": "Point", "coordinates": [ -75.1637216, 39.9456595 ] } },
{ "type": "Feature", "properties": { "id": "way/12163678", "name": "panama street", "address": null, "category": [ "alley" ] }, "geometry": { "type": "Point", "coordinates": [ -75.152627, 39.944387 ] } },
{ "type": "Feature", "properties": { "id": "way/12165092", "name": "north hutchinson street", "address": null, "category": [ "alley" ] }, "geometry": { "type": "Point", "coordinates": [ -75.1556485, 39.9532646 ] } },
{ "type": "Feature", "properties": { "id": "way/12165133", "name": "north hutchinson street", "address": null, "category": [ "alley" ] }, "geometry": { "type": "Point", "coordinates": [ -75.1552439, 39.9548419 ] } },
{ "type": "Feature", "properties": { "id": "way/12165358", "name": "south sartain street", "address": null, "category": [ "alley" ] }, "geometry": { "type": "Point", "coordinates": [ -75.1604209, 39.9472968 ] } },
{ "type": "Feature", "properties": { "id": "way/12165642", "name": "hancock street", "address": null, "category": [ "alley" ] }, "geometry": { "type": "Point", "coordinates": [ -75.1404705, 39.9622825 ] } },
{ "type": "Feature", "properties": { "id": "way/12165898", "name": "addison street", "address": null, "category": [ "alley" ] }, "geometry": { "type": "Point", "coordinates": [ -75.1677467, 39.945244 ] } },
{ "type": "Feature", "properties": { "id": "way/12165902", "name": "addison street", "address": null, "category": [ "alley" ] }, "geometry": { "type": "Point", "coordinates": [ -75.1637726, 39.9448845 ] } },
{ "type": "Feature", "properties": { "id": "way/12166669", "name": "saint marks street", "address": null, "category": [ "alley" ] }, "geometry": { "type": "Point", "coordinates": [ -75.20803, 39.9494875 ] } },
{ "type": "Feature", "properties": { "id": "way/12167163", "name": "senate street", "address": null, "category": [ "alley" ] }, "geometry": { "type": "Point", "coordinates": [ -75.166696, 39.9421985 ] } },
{ "type": "Feature", "properties": { "id": "way/12167166", "name": "senate street", "address": null, "category": [ "alley" ] }, "geometry": { "type": "Point", "coordinates": [ -75.1797302, 39.9438401 ] } },
{ "type": "Feature", "properties": { "id": "way/12167275", "name": "franklin street", "address": null, "category": [ "alley" ] }, "geometry": { "type": "Point", "coordinates": [ -75.1545881, 39.9428341 ] } },
{ "type": "Feature", "properties": { "id": "way/12167276", "name": "latimer street", "address": null, "category": [ "alley" ] }, "geometry": { "type": "Point", "coordinates": [ -75.1778429, 39.9494986 ] } },
{ "type": "Feature", "properties": { "id": "way/12167277", "name": "latimer street", "address": null, "category": [ "alley" ] }, "geometry": { "type": "Point", "coordinates": [ -75.169876, 39.9485272 ] } },
{ "type": "Feature", "properties": { "id": "way/12167281", "name": "latimer street", "address": null, "category": [ "alley" ] }, "geometry": { "type": "Point", "coordinates": [ -75.1631931, 39.9476544 ] } },
{ "type": "Feature", "properties": { "id": "way/12167282", "name": "latimer street", "address": null, "category": [ "alley" ] }, "geometry": { "type": "Point", "coordinates": [ -75.1599212, 39.9472671 ] } },
{ "type": "Feature", "properties": { "id": "way/12167285", "name": "latimer street", "address": null, "category": [ "alley" ] }, "geometry": { "type": "Point", "coordinates": [ -75.1753517, 39.9492311 ] } },
{ "type": "Feature", "properties": { "id": "way/12167457", "name": "mascher street", "address": null, "category": [ "alley" ] }, "geometry": { "type": "Point", "coordinates": [ -75.1426644, 39.9515382 ] } },
{ "type": "Feature", "properties": { "id": "way/12167489", "name": "trotters alley", "address": null, "category": [ "alley" ] }, "geometry": { "type": "Point", "coordinates": [ -75.1442322, 39.9490984 ] } },
{ "type": "Feature", "properties": { "id": "way/12169019", "name": "university mews", "address": null, "category": [ "alley" ] }, "geometry": { "type": "Point", "coordinates": [ -75.2127488, 39.9525377 ] } },
{ "type": "Feature", "properties": { "id": "way/12169816", "name": "south leithgow street", "address": null, "category": [ "alley" ] }, "geometry": { "type": "Point", "coordinates": [ -75.1496213, 39.9419488 ] } },
{ "type": "Feature", "properties": { "id": "way/12170915", "name": "north alder street", "address": null, "category": [ "alley" ] }, "geometry": { "type": "Point", "coordinates": [ -75.15656, 39.9547148 ] } },
{ "type": "Feature", "properties": { "id": "way/12171608", "name": "irving street", "address": null, "category": [ "alley" ] }, "geometry": { "type": "Point", "coordinates": [ -75.1571655, 39.9465514 ] } },
{ "type": "Feature", "properties": { "id": "way/12171612", "name": "irving street", "address": null, "category": [ "alley" ] }, "geometry": { "type": "Point", "coordinates": [ -75.1599854, 39.9469775 ] } },
{ "type": "Feature", "properties": { "id": "way/12172075", "name": "carriage lane", "address": null, "category": [ "parking_aisle" ] }, "geometry": { "type": "Point", "coordinates": [ -75.1880078, 39.9624029 ] } },
{ "type": "Feature", "properties": { "id": "way/12172964", "name": "pigs alley", "address": null, "category": [ "alley" ] }, "geometry": { "type": "Point", "coordinates": [ -75.1764351, 39.9683927 ] } },
{ "type": "Feature", "properties": { "id": "way/12174235", "name": "rodman street", "address": null, "category": [ "alley" ] }, "geometry": { "type": "Point", "coordinates": [ -75.1668324, 39.9442228 ] } },
{ "type": "Feature", "properties": { "id": "way/12174715", "name": "saint james street", "address": null, "category": [ "alley" ] }, "geometry": { "type": "Point", "coordinates": [ -75.175178, 39.9498454 ] } },
{ "type": "Feature", "properties": { "id": "way/12174717", "name": "saint james street", "address": null, "category": [ "alley" ] }, "geometry": { "type": "Point", "coordinates": [ -75.1534628, 39.9474172 ] } },
{ "type": "Feature", "properties": { "id": "way/12174725", "name": "saint james street", "address": null, "category": [ "alley" ] }, "geometry": { "type": "Point", "coordinates": [ -75.1595052, 39.9480784 ] } },
{ "type": "Feature", "properties": { "id": "way/12174727", "name": "saint james street", "address": null, "category": [ "alley" ] }, "geometry": { "type": "Point", "coordinates": [ -75.1614914, 39.9482369 ] } },
{ "type": "Feature", "properties": { "id": "way/12174793", "name": "south juniper street", "address": null, "category": [ "alley" ] }, "geometry": { "type": "Point", "coordinates": [ -75.1634954, 39.948897 ] } },
{ "type": "Feature", "properties": { "id": "way/12174799", "name": "north june court", "address": null, "category": [ "alley" ] }, "geometry": { "type": "Point", "coordinates": [ -75.2139259, 39.9659757 ] } },
{ "type": "Feature", "properties": { "id": "way/12175316", "name": "north warnock street", "address": null, "category": [ "alley" ] }, "geometry": { "type": "Point", "coordinates": [ -75.149193, 39.990849 ] } },
{ "type": "Feature", "properties": { "id": "way/12176503", "name": "bradford alley", "address": null, "category": [ "alley" ] }, "geometry": { "type": "Point", "coordinates": [ -75.1543382, 39.9429366 ] } },
{ "type": "Feature", "properties": { "id": "way/12176651", "name": "south bonsall street", "address": null, "category": [ "alley" ] }, "geometry": { "type": "Point", "coordinates": [ -75.1791724, 39.9503993 ] } },
{ "type": "Feature", "properties": { "id": "way/12176656", "name": "south bonsall street", "address": null, "category": [ "alley" ] }, "geometry": { "type": "Point", "coordinates": [ -75.1788184, 39.9520847 ] } },
{ "type": "Feature", "properties": { "id": "way/12177023", "name": "palethorp street", "address": null, "category": [ "alley" ] }, "geometry": { "type": "Point", "coordinates": [ -75.12594, 40.0241181 ] } },
{ "type": "Feature", "properties": { "id": "way/12177286", "name": "west wilt street", "address": null, "category": [ "alley" ] }, "geometry": { "type": "Point", "coordinates": [ -75.1770246, 39.9835516 ] } },
{ "type": "Feature", "properties": { "id": "way/12177493", "name": "pearl street", "address": null, "category": [ "alley" ] }, "geometry": { "type": "Point", "coordinates": [ -75.1561797, 39.9577869 ] } },
{ "type": "Feature", "properties": { "id": "way/12177500", "name": "pearl street", "address": null, "category": [ "alley" ] }, "geometry": { "type": "Point", "coordinates": [ -75.1637032, 39.9587055 ] } },
{ "type": "Feature", "properties": { "id": "way/12178651", "name": "nadina place", "address": null, "category": [ "alley" ] }, "geometry": { "type": "Point", "coordinates": [ -75.2439649, 39.9180803 ] } },
{ "type": "Feature", "properties": { "id": "way/12178748", "name": "waverly street", "address": null, "category": [ "alley" ] }, "geometry": { "type": "Point", "coordinates": [ -75.1610715, 39.9446028 ] } },
{ "type": "Feature", "properties": { "id": "way/12179215", "name": "north may street", "address": null, "category": [ "alley" ] }, "geometry": { "type": "Point", "coordinates": [ -75.2150395, 39.969957 ] } },
{ "type": "Feature", "properties": { "id": "way/12182527", "name": "cambridge street", "address": null, "category": [ "alley" ] }, "geometry": { "type": "Point", "coordinates": [ -75.1460122, 39.9692156 ] } },
{ "type": "Feature", "properties": { "id": "way/12183844", "name": "lidia place", "address": null, "category": [ "alley" ] }, "geometry": { "type": "Point", "coordinates": [ -75.2436775, 39.9175343 ] } },
{ "type": "Feature", "properties": { "id": "way/12185864", "name": "bethlehem pike", "address": null, "category": [ "disused_tram" ] }, "geometry": { "type": "Point", "coordinates": [ -75.2081393, 40.0774009 ] } },
{ "type": "Feature", "properties": { "id": "way/12186665", "name": "north 10th street", "address": null, "category": [ "disused_tram" ] }, "geometry": { "type": "Point", "coordinates": [ -75.1484745, 39.9893514 ] } },
{ "type": "Feature", "properties": { "id": "way/12186855", "name": "cuthbert street", "address": null, "category": [ "alley" ] }, "geometry": { "type": "Point", "coordinates": [ -75.1558586, 39.952966 ] } },
{ "type": "Feature", "properties": { "id": "way/12186858", "name": "cuthbert street", "address": null, "category": [ "alley" ] }, "geometry": { "type": "Point", "coordinates": [ -75.1557009, 39.9530038 ] } },
{ "type": "Feature", "properties": { "id": "way/12187346", "name": "welsh court", "address": null, "category": [ "alley" ] }, "geometry": { "type": "Point", "coordinates": [ -75.0237818, 40.0411042 ] } },
{ "type": "Feature", "properties": { "id": "way/12187733", "name": "north hirst street", "address": null, "category": [ "alley" ] }, "geometry": { "type": "Point", "coordinates": [ -75.244463, 39.9661364 ] } },
{ "type": "Feature", "properties": { "id": "way/12187926", "name": "south marvine street", "address": null, "category": [ "disused_tram" ] }, "geometry": { "type": "Point", "coordinates": [ -75.1671765, 39.9149613 ] } },
{ "type": "Feature", "properties": { "id": "way/12188133", "name": "south schell street", "address": null, "category": [ "alley" ] }, "geometry": { "type": "Point", "coordinates": [ -75.156721, 39.9423218 ] } },
{ "type": "Feature", "properties": { "id": "way/12189408", "name": "winters court", "address": null, "category": [ "alley" ] }, "geometry": { "type": "Point", "coordinates": [ -75.156747, 39.9565766 ] } },
{ "type": "Feature", "properties": { "id": "way/12197587", "name": "jamestown alley", "address": null, "category": [ "alley" ] }, "geometry": { "type": "Point", "coordinates": [ -75.2055579, 40.0305733 ] } },
{ "type": "Feature", "properties": { "id": "way/12197754", "name": "naudain street", "address": null, "category": [ "parking_aisle" ] }, "geometry": { "type": "Point", "coordinates": [ -75.1666927, 39.9443897 ] } },
{ "type": "Feature", "properties": { "id": "way/12197801", "name": "north clifton street", "address": null, "category": [ "alley" ] }, "geometry": { "type": "Point", "coordinates": [ -75.1568789, 39.9563216 ] } },
{ "type": "Feature", "properties": { "id": "way/12197811", "name": "north clifton street", "address": null, "category": [ "alley" ] }, "geometry": { "type": "Point", "coordinates": [ -75.157178, 39.9547928 ] } },
{ "type": "Feature", "properties": { "id": "way/12197829", "name": "hoopes street", "address": null, "category": [ "alley" ] }, "geometry": { "type": "Point", "coordinates": [ -75.2151694, 39.9685993 ] } },
{ "type": "Feature", "properties": { "id": "way/12198519", "name": "south hancock street", "address": null, "category": [ "alley" ] }, "geometry": { "type": "Point", "coordinates": [ -75.1461793, 39.9366979 ] } },
{ "type": "Feature", "properties": { "id": "way/12198529", "name": "south hancock street", "address": null, "category": [ "alley" ] }, "geometry": { "type": "Point", "coordinates": [ -75.1437279, 39.9469431 ] } },
{ "type": "Feature", "properties": { "id": "way/12198543", "name": "south hancock street", "address": null, "category": [ "alley" ] }, "geometry": { "type": "Point", "coordinates": [ -75.1485102, 39.9269941 ] } },
{ "type": "Feature", "properties": { "id": "way/12199576", "name": "south american street", "address": null, "category": [ "alley" ] }, "geometry": { "type": "Point", "coordinates": [ -75.1482076, 39.9347574 ] } },
{ "type": "Feature", "properties": { "id": "way/12199682", "name": "old bridge road", "address": null, "category": [ "alley" ] }, "geometry": { "type": "Point", "coordinates": [ -75.1907483, 40.0073224 ] } },
{ "type": "Feature", "properties": { "id": "way/12201604", "name": "north sloan street", "address": null, "category": [ "alley" ] }, "geometry": { "type": "Point", "coordinates": [ -75.2028248, 39.9690382 ] } },
{ "type": "Feature", "properties": { "id": "way/12201606", "name": "north sloan street", "address": null, "category": [ "alley" ] }, "geometry": { "type": "Point", "coordinates": [ -75.2024328, 39.9669073 ] } },
{ "type": "Feature", "properties": { "id": "way/12201609", "name": "north sloan street", "address": null, "category": [ "alley" ] }, "geometry": { "type": "Point", "coordinates": [ -75.2022238, 39.9657911 ] } },
{ "type": "Feature", "properties": { "id": "way/12201968", "name": "ludlow street", "address": null, "category": [ "alley" ] }, "geometry": { "type": "Point", "coordinates": [ -75.1533808, 39.9505015 ] } },
{ "type": "Feature", "properties": { "id": "way/12202013", "name": "ludlow street", "address": null, "category": [ "alley" ] }, "geometry": { "type": "Point", "coordinates": [ -75.1773506, 39.9536544 ] } },
{ "type": "Feature", "properties": { "id": "way/12202181", "name": "north galloway street", "address": null, "category": [ "alley" ] }, "geometry": { "type": "Point", "coordinates": [ -75.1422165, 39.9684185 ] } },
{ "type": "Feature", "properties": { "id": "way/12202451", "name": "bergan court", "address": null, "category": [ "alley" ] }, "geometry": { "type": "Point", "coordinates": [ -75.1503644, 39.9404832 ] } },
{ "type": "Feature", "properties": { "id": "way/12202939", "name": "erdman street", "address": null, "category": [ "alley" ] }, "geometry": { "type": "Point", "coordinates": [ -75.1657538, 39.9694232 ] } },
{ "type": "Feature", "properties": { "id": "way/12203179", "name": "arlington street", "address": null, "category": [ "alley" ] }, "geometry": { "type": "Point", "coordinates": [ -75.141973, 39.9808695 ] } },
{ "type": "Feature", "properties": { "id": "way/12203717", "name": "south hutchinson street", "address": null, "category": [ "alley" ] }, "geometry": { "type": "Point", "coordinates": [ -75.1575298, 39.9441711 ] } },
{ "type": "Feature", "properties": { "id": "way/12204180", "name": "foxx lane", "address": null, "category": [ "driveway" ] }, "geometry": { "type": "Point", "coordinates": [ -75.1839834, 40.0249422 ] } },
{ "type": "Feature", "properties": { "id": "way/12204418", "name": "south randolph street", "address": null, "category": [ "alley" ] }, "geometry": { "type": "Point", "coordinates": [ -75.152018, 39.9403302 ] } },
{ "type": "Feature", "properties": { "id": "way/12204458", "name": "harper street", "address": null, "category": [ "alley" ] }, "geometry": { "type": "Point", "coordinates": [ -75.1825151, 39.9740026 ] } },
{ "type": "Feature", "properties": { "id": "way/12204555", "name": "de gray street", "address": null, "category": [ "alley" ] }, "geometry": { "type": "Point", "coordinates": [ -75.1566041, 39.9510152 ] } },
{ "type": "Feature", "properties": { "id": "way/12204590", "name": "saint john neumann way", "address": null, "category": [ "alley" ] }, "geometry": { "type": "Point", "coordinates": [ -75.1439256, 39.9668335 ] } },
{ "type": "Feature", "properties": { "id": "way/12204639", "name": "bakers lane", "address": null, "category": [ "alley" ] }, "geometry": { "type": "Point", "coordinates": [ -75.1504644, 40.0143348 ] } },
{ "type": "Feature", "properties": { "id": "way/12204643", "name": "bakers lane", "address": null, "category": [ "alley" ] }, "geometry": { "type": "Point", "coordinates": [ -75.1498525, 40.0129785 ] } },
{ "type": "Feature", "properties": { "id": "way/12204686", "name": "turner street", "address": null, "category": [ "alley" ] }, "geometry": { "type": "Point", "coordinates": [ -75.1507901, 39.9770937 ] } },
{ "type": "Feature", "properties": { "id": "way/12204705", "name": "bonaparte court", "address": null, "category": [ "alley" ] }, "geometry": { "type": "Point", "coordinates": [ -75.1566486, 39.9463355 ] } },
{ "type": "Feature", "properties": { "id": "way/12205055", "name": "castle court", "address": null, "category": [ "alley" ] }, "geometry": { "type": "Point", "coordinates": [ -75.1567575, 39.9558382 ] } },
{ "type": "Feature", "properties": { "id": "way/12205324", "name": "north delhi street", "address": null, "category": [ "alley" ] }, "geometry": { "type": "Point", "coordinates": [ -75.1505867, 39.9787865 ] } },
{ "type": "Feature", "properties": { "id": "way/12205355", "name": "quince street", "address": null, "category": [ "alley" ] }, "geometry": { "type": "Point", "coordinates": [ -75.1598731, 39.9482207 ] } },
{ "type": "Feature", "properties": { "id": "way/12205712", "name": "north orkney street", "address": null, "category": [ "alley" ] }, "geometry": { "type": "Point", "coordinates": [ -75.1456088, 39.9651791 ] } },
{ "type": "Feature", "properties": { "id": "way/12205718", "name": "saint john neumann place", "address": null, "category": [ "alley" ] }, "geometry": { "type": "Point", "coordinates": [ -75.1451666, 39.9669744 ] } },
{ "type": "Feature", "properties": { "id": "way/12205979", "name": "west flora street", "address": null, "category": [ "alley" ] }, "geometry": { "type": "Point", "coordinates": [ -75.1606129, 39.9720637 ] } },
{ "type": "Feature", "properties": { "id": "way/12205988", "name": "west flora street", "address": null, "category": [ "alley" ] }, "geometry": { "type": "Point", "coordinates": [ -75.1810682, 39.9746203 ] } },
{ "type": "Feature", "properties": { "id": "way/12206287", "name": "east sarah street", "address": null, "category": [ "alley" ] }, "geometry": { "type": "Point", "coordinates": [ -75.1339193, 39.9660839 ] } },
{ "type": "Feature", "properties": { "id": "way/12206410", "name": "south watts street", "address": null, "category": [ "alley" ] }, "geometry": { "type": "Point", "coordinates": [ -75.1694318, 39.9224292 ] } },
{ "type": "Feature", "properties": { "id": "way/12206421", "name": "south watts street", "address": null, "category": [ "alley" ] }, "geometry": { "type": "Point", "coordinates": [ -75.1637394, 39.9489806 ] } },
{ "type": "Feature", "properties": { "id": "way/12207419", "name": "escape track", "address": null, "category": [ "siding" ] }, "geometry": { "type": "Point", "coordinates": [ -75.2219233, 39.9299658 ] } },
{ "type": "Feature", "properties": { "id": "relation/15015100", "name": "claudio specialty foods", "address": "926, south 9th street, philadelphia, pa, 19147", "category": [ "deli", "yes" ] }, "geometry": { "type": "Point", "coordinates": [ -75.1582295, 39.9382103 ] } },
{ "type": "Feature", "properties": { "id": "relation/15353868", "name": "presbyterian historical society", "address": "425, lombard street, philadelphia, pa", "category": [ "museum", "yes" ] }, "geometry": { "type": "Point", "coordinates": [ -75.1499077, 39.9430595 ] } },
{ "type": "Feature", "properties": { "id": "relation/15693769", "name": "boathouse row", "address": null, "category": [ "attraction" ] }, "geometry": { "type": "Point", "coordinates": [ -75.1874519, 39.9694256 ] } },
{ "type": "Feature", "properties": { "id": "relation/18313437", "name": "extra space storage", "address": "4433, wayne avenue, philadelphia, pa", "category": [ "storage_rental", "yes", "extra space storage" ] }, "geometry": { "type": "Point", "coordinates": [ -75.1593899, 40.0216171 ] } },
{ "type": "Feature", "properties": { "id": "relation/19528641", "name": "embodying thoreau: dwelling, sitting, watching", "address": null, "category": [ "artwork" ] }, "geometry": { "type": "Point", "coordinates": [ -75.0628626, 40.0883969 ] } },
{ "type": "Feature", "properties": { "id": "way/25271595", "name": "independence hall", "address": "520, chestnut street, philadelphia, pa, 19106", "category": [ "attraction", "yes" ] }, "geometry": { "type": "Point", "coordinates": [ -75.1500195, 39.9488937 ] } },
{ "type": "Feature", "properties": { "id": "way/28533972", "name": "philadelphia museum of art", "address": "2600, benjamin franklin parkway, philadelphia, pa, 19130", "category": [ "museum", "yes" ] }, "geometry": { "type": "Point", "coordinates": [ -75.1809204, 39.9655742 ] } },
{ "type": "Feature", "properties": { "id": "way/30908182", "name": "north 11th street", "address": null, "category": [ "disused_tram" ] }, "geometry": { "type": "Point", "coordinates": [ -75.1571252, 39.9571994 ] } },
{ "type": "Feature", "properties": { "id": "way/30908183", "name": "north 12th street", "address": null, "category": [ "disused_tram" ] }, "geometry": { "type": "Point", "coordinates": [ -75.1586859, 39.9573999 ] } },
{ "type": "Feature", "properties": { "id": "way/30908184", "name": "north 12th street", "address": null, "category": [ "disused_tram" ] }, "geometry": { "type": "Point", "coordinates": [ -75.1587186, 39.9572359 ] } },
{ "type": "Feature", "properties": { "id": "way/32077777", "name": "pearl street", "address": null, "category": [ "alley" ] }, "geometry": { "type": "Point", "coordinates": [ -75.1597349, 39.9582528 ] } },
{ "type": "Feature", "properties": { "id": "way/32077778", "name": "pearl street", "address": null, "category": [ "alley" ] }, "geometry": { "type": "Point", "coordinates": [ -75.1570868, 39.9579204 ] } },
{ "type": "Feature", "properties": { "id": "way/32120208", "name": "shops at 40th street", "address": "200, south 40th street, philadelphia, pa", "category": [ "mall", "yes" ] }, "geometry": { "type": "Point", "coordinates": [ -75.2032203, 39.9535536 ] } },
{ "type": "Feature", "properties": { "id": "way/32122035", "name": "hamilton mansion", "address": null, "category": [ "museum", "yes" ] }, "geometry": { "type": "Point", "coordinates": [ -75.2037357, 39.9456925 ] } },
{ "type": "Feature", "properties": { "id": "way/37381395", "name": "administration building", "address": null, "category": [ "yes", "yes" ] }, "geometry": { "type": "Point", "coordinates": [ -75.1945483, 39.9723608 ] } },
{ "type": "Feature", "properties": { "id": "way/40083518", "name": "congress hall", "address": "philadelphia, pa, 19106", "category": [ "museum", "yes" ] }, "geometry": { "type": "Point", "coordinates": [ -75.1506447, 39.9489794 ] } },
{ "type": "Feature", "properties": { "id": "way/40083567", "name": "old city hall", "address": "philadelphia", "category": [ "museum", "yes" ] }, "geometry": { "type": "Point", "coordinates": [ -75.1494128, 39.9488652 ] } },
{ "type": "Feature", "properties": { "id": "way/40083914", "name": "national constitution center", "address": "525, arch street, philadelphia, pa, 19106", "category": [ "museum", "yes" ] }, "geometry": { "type": "Point", "coordinates": [ -75.1491555, 39.9536317 ] } },
{ "type": "Feature", "properties": { "id": "way/40086417", "name": "liberty bell center", "address": "526, market street, philadelphia, 19106", "category": [ "museum", "yes" ] }, "geometry": { "type": "Point", "coordinates": [ -75.1502603, 39.9498533 ] } },
{ "type": "Feature", "properties": { "id": "way/42706102", "name": "courtyard by marriott philadelphia city avenue", "address": "4100, presidential boulevard, philadelphia, pa, 19131", "category": [ "hotel", "yes", "courtyard" ] }, "geometry": { "type": "Point", "coordinates": [ -75.2106896, 40.0069941 ] } },
{ "type": "Feature", "properties": { "id": "way/42706103", "name": "tgi fridays", "address": "4000, city avenue, philadelphia, pa", "category": [ "restaurant", "yes", "tgi fridays" ] }, "geometry": { "type": "Point", "coordinates": [ -75.2111214, 40.0079252 ] } },
{ "type": "Feature", "properties": { "id": "way/42706110", "name": "target", "address": "4000, monument road, philadelphia, pa, 19131", "category": [ "department_store", "retail", "target" ] }, "geometry": { "type": "Point", "coordinates": [ -75.2118346, 40.0066082 ] } },
{ "type": "Feature", "properties": { "id": "way/42784724", "name": "loews philadelphia hotel", "address": "1200, market street, philadelphia, 19107", "category": [ "hotel", "yes" ] }, "geometry": { "type": "Point", "coordinates": [ -75.1603264, 39.9514135 ] } },
{ "type": "Feature", "properties": { "id": "way/43226669", "name": "germantown avenue", "address": null, "category": [ "disused_tram" ] }, "geometry": { "type": "Point", "coordinates": [ -75.1555637, 40.0184923 ] } },
{ "type": "Feature", "properties": { "id": "way/43226682", "name": "germantown avenue", "address": null, "category": [ "disused_tram" ] }, "geometry": { "type": "Point", "coordinates": [ -75.1540854, 40.0163512 ] } },
{ "type": "Feature", "properties": { "id": "way/49887255", "name": "strawberry mansion", "address": null, "category": [ "museum", "yes" ] }, "geometry": { "type": "Point", "coordinates": [ -75.1906127, 39.9942894 ] } },
{ "type": "Feature", "properties": { "id": "way/49916202", "name": "please touch museum", "address": "4231, avenue of the republic, philadelphia, pa, 19131", "category": [ "museum", "yes" ] }, "geometry": { "type": "Point", "coordinates": [ -75.2090399, 39.9794914 ] } },
{ "type": "Feature", "properties": { "id": "way/49916279", "name": "mcdonald's", "address": "1575, north 52nd street, philadelphia, pa, 19131", "category": [ "fast_food", "yes", "mcdonald's" ] }, "geometry": { "type": "Point", "coordinates": [ -75.2243263, 39.979979 ] } },
{ "type": "Feature", "properties": { "id": "way/49916283", "name": "shoprite", "address": "1575, north 52nd street, philadelphia, pa, 19131", "category": [ "supermarket", "yes", "shoprite" ] }, "geometry": { "type": "Point", "coordinates": [ -75.2244651, 39.9781459 ] } },
{ "type": "Feature", "properties": { "id": "way/49961142", "name": "independence visitor center", "address": "599, market street, philadelphia, pa, 19106", "category": [ "museum", "yes" ] }, "geometry": { "type": "Point", "coordinates": [ -75.1499082, 39.9514971 ] } },
{ "type": "Feature", "properties": { "id": "way/49990134", "name": "germantown avenue", "address": null, "category": [ "disused_tram" ] }, "geometry": { "type": "Point", "coordinates": [ -75.1509107, 40.0095297 ] } },
{ "type": "Feature", "properties": { "id": "way/49990206", "name": "germantown avenue", "address": null, "category": [ "disused_tram" ] }, "geometry": { "type": "Point", "coordinates": [ -75.2085006, 40.0771591 ] } },
{ "type": "Feature", "properties": { "id": "way/50110324", "name": "east side yard", "address": null, "category": [ "yard" ] }, "geometry": { "type": "Point", "coordinates": [ -75.1903812, 39.9177482 ] } },
{ "type": "Feature", "properties": { "id": "way/50111783", "name": "septa overbrook yard", "address": null, "category": [ "yard" ] }, "geometry": { "type": "Point", "coordinates": [ -75.2409613, 39.9837002 ] } },
{ "type": "Feature", "properties": { "id": "way/50111784", "name": "septa overbrook yard", "address": null, "category": [ "yard" ] }, "geometry": { "type": "Point", "coordinates": [ -75.2409454, 39.9836899 ] } },
{ "type": "Feature", "properties": { "id": "way/50111791", "name": "septa overbrook yard", "address": null, "category": [ "yard" ] }, "geometry": { "type": "Point", "coordinates": [ -75.2362427, 39.9820008 ] } },
{ "type": "Feature", "properties": { "id": "way/50111792", "name": "septa overbrook yard", "address": null, "category": [ "yard" ] }, "geometry": { "type": "Point", "coordinates": [ -75.2356129, 39.9818123 ] } },
{ "type": "Feature", "properties": { "id": "way/50111797", "name": "septa overbrook yard", "address": null, "category": [ "yard" ] }, "geometry": { "type": "Point", "coordinates": [ -75.2319017, 39.9802182 ] } },
{ "type": "Feature", "properties": { "id": "way/50111799", "name": "septa overbrook yard", "address": null, "category": [ "yard" ] }, "geometry": { "type": "Point", "coordinates": [ -75.235582, 39.9817195 ] } },
{ "type": "Feature", "properties": { "id": "way/50111804", "name": "septa overbrook yard", "address": null, "category": [ "yard" ] }, "geometry": { "type": "Point", "coordinates": [ -75.2339751, 39.9811884 ] } },
{ "type": "Feature", "properties": { "id": "way/50111816", "name": "septa overbrook yard", "address": null, "category": [ "yard" ] }, "geometry": { "type": "Point", "coordinates": [ -75.230485, 39.9797238 ] } },
{ "type": "Feature", "properties": { "id": "way/50114315", "name": "fort mifflin", "address": null, "category": [ "museum" ] }, "geometry": { "type": "Point", "coordinates": [ -75.2128863, 39.8754485 ] } },
{ "type": "Feature", "properties": { "id": "way/50166107", "name": "carlton street", "address": null, "category": [ "alley" ] }, "geometry": { "type": "Point", "coordinates": [ -75.1598504, 39.9588308 ] } },
{ "type": "Feature", "properties": { "id": "way/50166134", "name": "carlton street", "address": null, "category": [ "alley" ] }, "geometry": { "type": "Point", "coordinates": [ -75.1573742, 39.9585228 ] } },
{ "type": "Feature", "properties": { "id": "way/50171183", "name": "philadelphia marriott downtown", "address": "1201, market street, philadelphia, pa, 19107", "category": [ "hotel", "hotel", "marriott" ] }, "geometry": { "type": "Point", "coordinates": [ -75.1606229, 39.9525208 ] } },
{ "type": "Feature", "properties": { "id": "way/50189935", "name": "franklin institute", "address": "222, north 20th street, philadelphia, 19103", "category": [ "museum", "yes" ] }, "geometry": { "type": "Point", "coordinates": [ -75.1731184, 39.9582431 ] } },
{ "type": "Feature", "properties": { "id": "way/50978350", "name": "aramark global headquarters", "address": "2400, market street", "category": [ "yes", "yes" ] }, "geometry": { "type": "Point", "coordinates": [ -75.1794158, 39.9535369 ] } },
{ "type": "Feature", "properties": { "id": "way/52495244", "name": "valley green inn", "address": "900, wises mill road, philadelphia, pa, 19128", "category": [ "restaurant", "yes" ] }, "geometry": { "type": "Point", "coordinates": [ -75.2182054, 40.0540905 ] } },
{ "type": "Feature", "properties": { "id": "way/52495486", "name": "mcdonald's", "address": "8500, henry avenue, philadelphia, pa, 19128", "category": [ "fast_food", "yes", "mcdonald's" ] }, "geometry": { "type": "Point", "coordinates": [ -75.23881, 40.0638498 ] } },
{ "type": "Feature", "properties": { "id": "way/52495488", "name": "five below", "address": "8500, henry avenue, philadelphia, pa, 19128", "category": [ "variety_store", "yes", "five below" ] }, "geometry": { "type": "Point", "coordinates": [ -75.2361892, 40.0633871 ] } },
{ "type": "Feature", "properties": { "id": "way/52495489", "name": "kohl's", "address": "8500, henry avenue, philadelphia, pa, 19128", "category": [ "department_store", "yes", "kohl's" ] }, "geometry": { "type": "Point", "coordinates": [ -75.235284, 40.0628011 ] } },
{ "type": "Feature", "properties": { "id": "way/52495648", "name": "cvs pharmacy", "address": null, "category": [ "chemist", "retail", "cvs pharmacy" ] }, "geometry": { "type": "Point", "coordinates": [ -75.2371674, 40.0612288 ] } },
{ "type": "Feature", "properties": { "id": "way/59616323", "name": "philadelphia belt line industrial track", "address": null, "category": [ "yard" ] }, "geometry": { "type": "Point", "coordinates": [ -75.1662782, 39.8989787 ] } },
{ "type": "Feature", "properties": { "id": "way/59616944", "name": "east side yard", "address": null, "category": [ "yard" ] }, "geometry": { "type": "Point", "coordinates": [ -75.1903644, 39.9171375 ] } },
{ "type": "Feature", "properties": { "id": "way/60185657", "name": "airport line", "address": null, "category": [ "crossover" ] }, "geometry": { "type": "Point", "coordinates": [ -75.2202989, 39.9325979 ] } },
{ "type": "Feature", "properties": { "id": "way/60185668", "name": "northeast corridor", "address": null, "category": [ "crossover" ] }, "geometry": { "type": "Point", "coordinates": [ -75.1866688, 39.9487065 ] } },
{ "type": "Feature", "properties": { "id": "way/60420561", "name": "market-frankford line", "address": null, "category": [ "yard" ] }, "geometry": { "type": "Point", "coordinates": [ -75.0776572, 40.0243483 ] } },
{ "type": "Feature", "properties": { "id": "way/61294331", "name": "pearl street", "address": null, "category": [ "alley" ] }, "geometry": { "type": "Point", "coordinates": [ -75.1581264, 39.9580542 ] } },
{ "type": "Feature", "properties": { "id": "way/61294332", "name": "pearl street", "address": null, "category": [ "alley" ] }, "geometry": { "type": "Point", "coordinates": [ -75.1575702, 39.9579875 ] } },
{ "type": "Feature", "properties": { "id": "way/61652879", "name": "sheraton suites philadelphia airport", "address": "4101 b, island avenue, philadelphia, pa, 19153", "category": [ "hotel", "yes", "sheraton" ] }, "geometry": { "type": "Point", "coordinates": [ -75.23155, 39.89045 ] } },
{ "type": "Feature", "properties": { "id": "way/61652932", "name": "four points by sheraton philadelphia airport", "address": null, "category": [ "hotel", "yes", "four points by sheraton" ] }, "geometry": { "type": "Point", "coordinates": [ -75.2328242, 39.8916173 ] } },
{ "type": "Feature", "properties": { "id": "way/61652991", "name": "doubletree by hilton philadelphia airport", "address": "4509, island avenue, philadelphia, pa, 19153", "category": [ "hotel", "yes", "doubletree" ] }, "geometry": { "type": "Point", "coordinates": [ -75.2321925, 39.8888632 ] } },
{ "type": "Feature", "properties": { "id": "way/62141899", "name": "west susquehanna avenue", "address": null, "category": [ "disused_tram" ] }, "geometry": { "type": "Point", "coordinates": [ -75.1509156, 39.985602 ] } },
{ "type": "Feature", "properties": { "id": "way/62141958", "name": "germantown avenue", "address": null, "category": [ "disused_tram" ] }, "geometry": { "type": "Point", "coordinates": [ -75.1468532, 39.9889357 ] } },
{ "type": "Feature", "properties": { "id": "way/62142062", "name": "west huntingdon street", "address": null, "category": [ "disused_tram" ] }, "geometry": { "type": "Point", "coordinates": [ -75.1486687, 39.9915494 ] } },
{ "type": "Feature", "properties": { "id": "way/62142093", "name": "reed street", "address": null, "category": [ "disused_tram" ] }, "geometry": { "type": "Point", "coordinates": [ -75.1616549, 39.9325041 ] } },
{ "type": "Feature", "properties": { "id": "way/62142113", "name": "oregon avenue", "address": null, "category": [ "disused_tram" ] }, "geometry": { "type": "Point", "coordinates": [ -75.1670084, 39.9162622 ] } },
{ "type": "Feature", "properties": { "id": "way/62142115", "name": "oregon avenue", "address": null, "category": [ "disused_tram" ] }, "geometry": { "type": "Point", "coordinates": [ -75.1652092, 39.9160305 ] } },
{ "type": "Feature", "properties": { "id": "way/62142119", "name": "south 10th street", "address": null, "category": [ "disused_tram" ] }, "geometry": { "type": "Point", "coordinates": [ -75.1647919, 39.9146545 ] } },
{ "type": "Feature", "properties": { "id": "way/62142140", "name": "bigler street", "address": null, "category": [ "disused_tram" ] }, "geometry": { "type": "Point", "coordinates": [ -75.1662609, 39.9135211 ] } },
{ "type": "Feature", "properties": { "id": "way/62148386", "name": "germantown avenue", "address": null, "category": [ "disused_tram" ] }, "geometry": { "type": "Point", "coordinates": [ -75.1946741, 40.0645784 ] } },
{ "type": "Feature", "properties": { "id": "way/62148388", "name": "germantown avenue", "address": null, "category": [ "disused_tram" ] }, "geometry": { "type": "Point", "coordinates": [ -75.1963054, 40.0663673 ] } },
{ "type": "Feature", "properties": { "id": "way/63060593", "name": "north 12th street", "address": null, "category": [ "disused_tram" ] }, "geometry": { "type": "Point", "coordinates": [ -75.1586474, 39.9575671 ] } },
{ "type": "Feature", "properties": { "id": "way/63060594", "name": "north 11th street", "address": null, "category": [ "disused_tram" ] }, "geometry": { "type": "Point", "coordinates": [ -75.157163, 39.957031 ] } },
{ "type": "Feature", "properties": { "id": "way/65410528", "name": "germantown avenue", "address": null, "category": [ "disused_tram" ] }, "geometry": { "type": "Point", "coordinates": [ -75.1526388, 40.013414 ] } },
{ "type": "Feature", "properties": { "id": "way/74973040", "name": "acme", "address": "1400, east passyunk avenue, philadelphia, pa, 19147", "category": [ "supermarket", "yes", "acme" ] }, "geometry": { "type": "Point", "coordinates": [ -75.1623635, 39.9322757 ] } },
{ "type": "Feature", "properties": { "id": "way/87325590", "name": "president's house", "address": null, "category": [ "attraction" ] }, "geometry": { "type": "Point", "coordinates": [ -75.1500961, 39.9504525 ] } },
{ "type": "Feature", "properties": { "id": "way/89434182", "name": "commandant's quarters", "address": null, "category": [ "attraction", "yes" ] }, "geometry": { "type": "Point", "coordinates": [ -75.1770503, 39.8967566 ] } },
{ "type": "Feature", "properties": { "id": "way/92906296", "name": "septa overbrook yard", "address": null, "category": [ "yard" ] }, "geometry": { "type": "Point", "coordinates": [ -75.2330915, 39.9806687 ] } },
{ "type": "Feature", "properties": { "id": "way/98666986", "name": "fox chase line", "address": null, "category": [ "yard" ] }, "geometry": { "type": "Point", "coordinates": [ -75.08362, 40.0751786 ] } },
{ "type": "Feature", "properties": { "id": "way/101057382", "name": "philadelphia airport marriott", "address": null, "category": [ "hotel", "yes", "marriott" ] }, "geometry": { "type": "Point", "coordinates": [ -75.2445459, 39.8778774 ] } },
{ "type": "Feature", "properties": { "id": "way/103206743", "name": "main line", "address": null, "category": [ "crossover" ] }, "geometry": { "type": "Point", "coordinates": [ -75.157349, 40.0245939 ] } },
{ "type": "Feature", "properties": { "id": "way/106351831", "name": "whitman plaza driver and photo license center", "address": "330, oregon avenue, philadelphia, pa, 19148", "category": [ "government", "yes" ] }, "geometry": { "type": "Point", "coordinates": [ -75.1573054, 39.9133231 ] } },
{ "type": "Feature", "properties": { "id": "way/127091134", "name": "mariposa food co-op", "address": "4824, baltimore avenue, philadelphia, pa, 19143", "category": [ "supermarket", "yes" ] }, "geometry": { "type": "Point", "coordinates": [ -75.2206408, 39.9479798 ] } },
{ "type": "Feature", "properties": { "id": "way/132884669", "name": "the fresh grocer", "address": "1501, north broad street, philadelphia, pa, 19122", "category": [ "supermarket", "retail" ] }, "geometry": { "type": "Point", "coordinates": [ -75.1576395, 39.9768516 ] } },
{ "type": "Feature", "properties": { "id": "way/134084833", "name": "keystone corridor", "address": null, "category": [ "crossover" ] }, "geometry": { "type": "Point", "coordinates": [ -75.1842678, 39.9625857 ] } },
{ "type": "Feature", "properties": { "id": "way/134091098", "name": "keystone corridor", "address": null, "category": [ "crossover" ] }, "geometry": { "type": "Point", "coordinates": [ -75.2123866, 39.9730554 ] } },
{ "type": "Feature", "properties": { "id": "way/135069545", "name": "latimer street", "address": null, "category": [ "alley" ] }, "geometry": { "type": "Point", "coordinates": [ -75.155664, 39.9461516 ] } },
{ "type": "Feature", "properties": { "id": "way/135537713", "name": "dinic's pork & beef", "address": "15, kitty hawk avenue, philadelphia, pa, 19112", "category": [ "restaurant", "yes" ] }, "geometry": { "type": "Point", "coordinates": [ -75.1776411, 39.8900429 ] } },
{ "type": "Feature", "properties": { "id": "way/143329907", "name": "u-haul", "address": "8300, ridge avenue, philadelphia, pa", "category": [ "rental", "yes", "u-haul" ] }, "geometry": { "type": "Point", "coordinates": [ -75.2387631, 40.0598373 ] } },
{ "type": "Feature", "properties": { "id": "way/145605489", "name": "monterey street", "address": null, "category": [ "alley" ] }, "geometry": { "type": "Point", "coordinates": [ -75.1700885, 39.9639881 ] } },
{ "type": "Feature", "properties": { "id": "way/145605527", "name": "wilcox street", "address": null, "category": [ "alley" ] }, "geometry": { "type": "Point", "coordinates": [ -75.1699735, 39.9645249 ] } },
{ "type": "Feature", "properties": { "id": "way/147318001", "name": "philadelphia marriott old city", "address": "1, dock street, philadelphia, pa, 19106", "category": [ "hotel", "yes", "marriott" ] }, "geometry": { "type": "Point", "coordinates": [ -75.1436241, 39.9461726 ] } },
{ "type": "Feature", "properties": { "id": "way/155794904", "name": "vientiane cafe", "address": "4728, baltimore avenue, philadelphia, pa, 19143", "category": [ "restaurant", "commercial" ] }, "geometry": { "type": "Point", "coordinates": [ -75.2179106, 39.9483295 ] } },
{ "type": "Feature", "properties": { "id": "way/170020467", "name": "north 11th street", "address": null, "category": [ "disused_tram" ] }, "geometry": { "type": "Point", "coordinates": [ -75.1570843, 39.957369 ] } },
{ "type": "Feature", "properties": { "id": "way/170020472", "name": "north 11th street", "address": null, "category": [ "disused_tram" ] }, "geometry": { "type": "Point", "coordinates": [ -75.1551175, 39.9663777 ] } },
{ "type": "Feature", "properties": { "id": "way/170020479", "name": "north 12th street", "address": null, "category": [ "disused_tram" ] }, "geometry": { "type": "Point", "coordinates": [ -75.1592219, 39.95489 ] } },
{ "type": "Feature", "properties": { "id": "way/170020485", "name": "north 12th street", "address": null, "category": [ "disused_tram" ] }, "geometry": { "type": "Point", "coordinates": [ -75.1595975, 39.9532519 ] } },
{ "type": "Feature", "properties": { "id": "way/170020486", "name": "north 12th street", "address": null, "category": [ "disused_tram" ] }, "geometry": { "type": "Point", "coordinates": [ -75.1588831, 39.9564574 ] } },
{ "type": "Feature", "properties": { "id": "way/170020500", "name": "south 11th street", "address": null, "category": [ "disused_tram" ] }, "geometry": { "type": "Point", "coordinates": [ -75.1597171, 39.9452758 ] } },
{ "type": "Feature", "properties": { "id": "way/170020501", "name": "south 11th street", "address": null, "category": [ "disused_tram" ] }, "geometry": { "type": "Point", "coordinates": [ -75.1619142, 39.9351119 ] } },
{ "type": "Feature", "properties": { "id": "way/170349581", "name": "uss becuna", "address": "south christopher columbus boulevard, philadelphia, pa, 19106", "category": [ "attraction", "ship" ] }, "geometry": { "type": "Point", "coordinates": [ -75.1411711, 39.943533 ] } },
{ "type": "Feature", "properties": { "id": "way/170349584", "name": "uss olympia", "address": "south christopher columbus boulevard, philadelphia, pa, 19106", "category": [ "attraction", "ship" ] }, "geometry": { "type": "Point", "coordinates": [ -75.1409967, 39.9435058 ] } },
{ "type": "Feature", "properties": { "id": "way/170349587", "name": "moshulu", "address": "401, columbus boulevard, philadelphia, pa, 19106", "category": [ "restaurant", "ship" ] }, "geometry": { "type": "Point", "coordinates": [ -75.1410286, 39.9423526 ] } },
{ "type": "Feature", "properties": { "id": "way/179815699", "name": "sister cities cafe", "address": null, "category": [ "cafe", "retail" ] }, "geometry": { "type": "Point", "coordinates": [ -75.1691774, 39.9579437 ] } },
{ "type": "Feature", "properties": { "id": "way/183374061", "name": "embassy suites by hilton philadelphia - center city", "address": "1776, benjamin franklin parkway, philadelphia, 19103", "category": [ "hotel", "yes", "embassy suites" ] }, "geometry": { "type": "Point", "coordinates": [ -75.1689059, 39.9562882 ] } },
{ "type": "Feature", "properties": { "id": "way/183374064", "name": "the windsor suites", "address": "1700, benjamin franklin parkway, philadelphia, pa, 19103", "category": [ "hotel", "yes" ] }, "geometry": { "type": "Point", "coordinates": [ -75.168235, 39.9556679 ] } },
{ "type": "Feature", "properties": { "id": "way/183620616", "name": "barnes foundation", "address": "2025, benjamin franklin parkway, philadelphia, pa, 19130", "category": [ "museum", "yes" ] }, "geometry": { "type": "Point", "coordinates": [ -75.1727069, 39.9606336 ] } },
{ "type": "Feature", "properties": { "id": "way/183625405", "name": "rodin museum", "address": "2151, benjamin franklin parkway, philadelphia, pa, 19130", "category": [ "museum", "yes" ] }, "geometry": { "type": "Point", "coordinates": [ -75.1739508, 39.9619295 ] } },
{ "type": "Feature", "properties": { "id": "way/187434522", "name": "north lex street", "address": null, "category": [ "alley" ] }, "geometry": { "type": "Point", "coordinates": [ -75.2119044, 39.9685147 ] } },
{ "type": "Feature", "properties": { "id": "way/189706826", "name": "dunkin'", "address": "2522, aramingo avenue, philadelphia, pa, 19125", "category": [ "fast_food", "yes", "dunkin'" ] }, "geometry": { "type": "Point", "coordinates": [ -75.1194888, 39.9781465 ] } },
{ "type": "Feature", "properties": { "id": "way/191635615", "name": "cvs pharmacy", "address": "4314, locust street, philadelphia, pa, 19104", "category": [ "chemist", "yes", "cvs pharmacy" ] }, "geometry": { "type": "Point", "coordinates": [ -75.2096657, 39.9535074 ] } },
{ "type": "Feature", "properties": { "id": "way/191636235", "name": "supremo foodmarket", "address": "4301, walnut street, philadelphia", "category": [ "supermarket", "retail" ] }, "geometry": { "type": "Point", "coordinates": [ -75.2091346, 39.9552382 ] } },
{ "type": "Feature", "properties": { "id": "way/193800299", "name": "south mildred street", "address": null, "category": [ "alley" ] }, "geometry": { "type": "Point", "coordinates": [ -75.1564906, 39.9401229 ] } },
{ "type": "Feature", "properties": { "id": "way/193800301", "name": "south reese street", "address": null, "category": [ "alley" ] }, "geometry": { "type": "Point", "coordinates": [ -75.1514813, 39.9407225 ] } },
{ "type": "Feature", "properties": { "id": "way/194358839", "name": "medical drive", "address": null, "category": [ "driveway" ] }, "geometry": { "type": "Point", "coordinates": [ -75.1991191, 39.9583734 ] } },
{ "type": "Feature", "properties": { "id": "way/194559522", "name": "south orianna street", "address": null, "category": [ "alley" ] }, "geometry": { "type": "Point", "coordinates": [ -75.1522925, 39.925523 ] } },
{ "type": "Feature", "properties": { "id": "way/194835178", "name": "south camac street", "address": null, "category": [ "alley" ] }, "geometry": { "type": "Point", "coordinates": [ -75.1622478, 39.9447579 ] } },
{ "type": "Feature", "properties": { "id": "way/194835180", "name": "quince street", "address": null, "category": [ "alley" ] }, "geometry": { "type": "Point", "coordinates": [ -75.1601359, 39.9470404 ] } },
{ "type": "Feature", "properties": { "id": "way/194835181", "name": "quince street", "address": null, "category": [ "alley" ] }, "geometry": { "type": "Point", "coordinates": [ -75.1605229, 39.9452728 ] } },
{ "type": "Feature", "properties": { "id": "way/195634792", "name": "germantown avenue", "address": null, "category": [ "disused_tram" ] }, "geometry": { "type": "Point", "coordinates": [ -75.1480975, 39.992291 ] } },
{ "type": "Feature", "properties": { "id": "way/195634794", "name": "germantown avenue", "address": null, "category": [ "disused_tram" ] }, "geometry": { "type": "Point", "coordinates": [ -75.1482702, 39.9911295 ] } },
{ "type": "Feature", "properties": { "id": "way/196935854", "name": "moravian street", "address": null, "category": [ "alley" ] }, "geometry": { "type": "Point", "coordinates": [ -75.1746887, 39.9510822 ] } },
{ "type": "Feature", "properties": { "id": "way/196935855", "name": "ranstead street", "address": null, "category": [ "alley" ] }, "geometry": { "type": "Point", "coordinates": [ -75.1743336, 39.9527272 ] } },
{ "type": "Feature", "properties": { "id": "way/197012479", "name": "green line cafe", "address": "4239, baltimore avenue, philadelphia, pa", "category": [ "cafe", "yes" ] }, "geometry": { "type": "Point", "coordinates": [ -75.2091228, 39.949814 ] } },
{ "type": "Feature", "properties": { "id": "way/197414115", "name": "wawa", "address": "6701, ridge avenue, philadelphia, pa", "category": [ "convenience", "yes", "wawa" ] }, "geometry": { "type": "Point", "coordinates": [ -75.2235009, 40.04069 ] } },
{ "type": "Feature", "properties": { "id": "way/197414127", "name": "acme", "address": "5927, ridge avenue, philadelphia, pa, 19128", "category": [ "supermarket", "retail", "acme" ] }, "geometry": { "type": "Point", "coordinates": [ -75.2112611, 40.0316962 ] } },
{ "type": "Feature", "properties": { "id": "way/197418024", "name": "autozone", "address": "6758, ridge avenue, philadelphia, pa, 19128", "category": [ "car_parts", "yes", "autozone" ] }, "geometry": { "type": "Point", "coordinates": [ -75.2259911, 40.0415101 ] } },
{ "type": "Feature", "properties": { "id": "way/197427567", "name": "koller funeral home", "address": "6835, ridge avenue, philadelphia, pa, 19128", "category": [ "funeral_directors", "yes" ] }, "geometry": { "type": "Point", "coordinates": [ -75.2269727, 40.0431983 ] } },
{ "type": "Feature", "properties": { "id": "way/198653091", "name": "holiday inn express", "address": "1305-11, walnut street, philadelphia, pa, 19107", "category": [ "hotel", "yes", "holiday inn express" ] }, "geometry": { "type": "Point", "coordinates": [ -75.1625868, 39.9493682 ] } },
{ "type": "Feature", "properties": { "id": "way/200002962", "name": "clarkville", "address": "4301, baltimore avenue, philadelphia, pa, 19104", "category": [ "restaurant", "yes" ] }, "geometry": { "type": "Point", "coordinates": [ -75.209413, 39.9497355 ] } },
{ "type": "Feature", "properties": { "id": "way/200234832", "name": "asad's hot chicken", "address": null, "category": [ "restaurant", "yes" ] }, "geometry": { "type": "Point", "coordinates": [ -75.210951, 39.9438016 ] } },
{ "type": "Feature", "properties": { "id": "way/200676626", "name": "hummus grill", "address": "3931, walnut street, philadelphia, pa, 19104", "category": [ "restaurant", "yes" ] }, "geometry": { "type": "Point", "coordinates": [ -75.2021438, 39.9543196 ] } },
{ "type": "Feature", "properties": { "id": "way/202984673", "name": "papa john's", "address": "104, south 40th street, philadelphia, pa, 19104", "category": [ "fast_food", "yes", "papa john's" ] }, "geometry": { "type": "Point", "coordinates": [ -75.2026379, 39.9551804 ] } },
{ "type": "Feature", "properties": { "id": "way/202984676", "name": "ekta indian cuisine", "address": "106, south 40th street, philadelphia, pa, 19104", "category": [ "restaurant", "yes" ] }, "geometry": { "type": "Point", "coordinates": [ -75.2026665, 39.9551267 ] } },
{ "type": "Feature", "properties": { "id": "way/205238781", "name": "internal revenue service", "address": "2970, market street, philadelphia", "category": [ "government", "yes" ] }, "geometry": { "type": "Point", "coordinates": [ -75.1826173, 39.9538857 ] } },
{ "type": "Feature", "properties": { "id": "way/205238787", "name": "one drexel plaza", "address": "3001, market street, philadelphia, 19104", "category": [ "company", "yes" ] }, "geometry": { "type": "Point", "coordinates": [ -75.1843391, 39.955506 ] } },
{ "type": "Feature", "properties": { "id": "way/205238794", "name": "american red cross safeguard scientifics building", "address": "2221, chestnut street, philadelphia, 19103", "category": [ "ngo", "office" ] }, "geometry": { "type": "Point", "coordinates": [ -75.1777168, 39.9528486 ] } },
{ "type": "Feature", "properties": { "id": "way/206643520", "name": "north 11th street", "address": null, "category": [ "disused_tram" ] }, "geometry": { "type": "Point", "coordinates": [ -75.1533583, 39.9744134 ] } },
{ "type": "Feature", "properties": { "id": "way/206643521", "name": "north 11th street", "address": null, "category": [ "disused_tram" ] }, "geometry": { "type": "Point", "coordinates": [ -75.1516547, 39.9822043 ] } },
{ "type": "Feature", "properties": { "id": "way/210856697", "name": "the home depot", "address": "4640, roosevelt boulevard, philadelphia, pa, 19124", "category": [ "doityourself", "yes", "the home depot" ] }, "geometry": { "type": "Point", "coordinates": [ -75.0978712, 40.0303625 ] } },
{ "type": "Feature", "properties": { "id": "way/210856698", "name": "pep boys", "address": "4640, roosevelt boulevard, philadelphia, pa, 19124", "category": [ "car_repair", "yes", "pep boys" ] }, "geometry": { "type": "Point", "coordinates": [ -75.0992752, 40.0287045 ] } },
{ "type": "Feature", "properties": { "id": "way/210856703", "name": "chick-fil-a", "address": "4670, roosevelt boulevard, philadelphia, pa, 19124", "category": [ "fast_food", "yes", "chick-fil-a" ] }, "geometry": { "type": "Point", "coordinates": [ -75.0996674, 40.0290169 ] } },
{ "type": "Feature", "properties": { "id": "way/210856705", "name": "united buffet", "address": "4640, roosevelt boulevard, philadelphia, pa", "category": [ "restaurant", "yes" ] }, "geometry": { "type": "Point", "coordinates": [ -75.1004114, 40.0295971 ] } },
{ "type": "Feature", "properties": { "id": "way/210922074", "name": "7-eleven", "address": "7607, ridge avenue, philadelphia, pa, 19128", "category": [ "convenience", "yes", "7-eleven" ] }, "geometry": { "type": "Point", "coordinates": [ -75.2357636, 40.0510739 ] } },
{ "type": "Feature", "properties": { "id": "way/213248091", "name": "sunoco", "address": "3670, richmond street, philadelphia, pa", "category": [ "convenience", "retail", "sunoco" ] }, "geometry": { "type": "Point", "coordinates": [ -75.0902163, 39.9891695 ] } },
{ "type": "Feature", "properties": { "id": "way/213248094", "name": "target", "address": "2701, castor avenue, philadelphia, pa, 19134", "category": [ "department_store", "retail", "target" ] }, "geometry": { "type": "Point", "coordinates": [ -75.0889802, 39.9911878 ] } },
{ "type": "Feature", "properties": { "id": "way/213248099", "name": "tim wilson & son auto sales & service", "address": "3685, richmond street, philadelphia, pa", "category": [ "car", "retail" ] }, "geometry": { "type": "Point", "coordinates": [ -75.0896539, 39.98878 ] } },
{ "type": "Feature", "properties": { "id": "way/213255044", "name": "the home depot", "address": "2539, castor avenue, philadelphia, pa, 19134", "category": [ "doityourself", "retail", "the home depot" ] }, "geometry": { "type": "Point", "coordinates": [ -75.090664, 39.9919547 ] } },
{ "type": "Feature", "properties": { "id": "way/213255050", "name": "applebee's", "address": "2535, castor avenue, philadelphia, pa, 19134", "category": [ "restaurant", "commercial", "applebee's neighborhood grill & bar" ] }, "geometry": { "type": "Point", "coordinates": [ -75.092588, 39.9932138 ] } },
{ "type": "Feature", "properties": { "id": "way/213271509", "name": "boston market", "address": "3680, aramingo avenue, philadelphia, pa", "category": [ "fast_food", "retail", "boston market" ] }, "geometry": { "type": "Point", "coordinates": [ -75.0952778, 39.9946556 ] } },
{ "type": "Feature", "properties": { "id": "way/213271511", "name": "philadelphia cycle center", "address": "2450, castor avenue, philadelphia, pa, 19134", "category": [ "motorcycle", "retail", "honda" ] }, "geometry": { "type": "Point", "coordinates": [ -75.0943905, 39.9931976 ] } },
{ "type": "Feature", "properties": { "id": "way/213271513", "name": "kfc", "address": "3621, aramingo avenue, philadelphia, pa, 19134", "category": [ "fast_food", "retail", "kfc" ] }, "geometry": { "type": "Point", "coordinates": [ -75.094954, 39.9940347 ] } },
{ "type": "Feature", "properties": { "id": "way/213271514", "name": "chick-fil-a", "address": "2301, east butler street, philadelphia, pa, 19137", "category": [ "fast_food", "retail", "chick-fil-a" ] }, "geometry": { "type": "Point", "coordinates": [ -75.0927569, 39.9972999 ] } },
{ "type": "Feature", "properties": { "id": "way/213271527", "name": "golden linens", "address": "2417, castor avenue, philadelphia, pa, 19134", "category": [ "houseware", "retail" ] }, "geometry": { "type": "Point", "coordinates": [ -75.0932521, 39.9943932 ] } },
{ "type": "Feature", "properties": { "id": "way/213271531", "name": "burger king", "address": "2416, castor avenue, philadelphia, pa, 19134-4604", "category": [ "fast_food", "retail", "burger king" ] }, "geometry": { "type": "Point", "coordinates": [ -75.0945248, 39.993723 ] } },
{ "type": "Feature", "properties": { "id": "way/213271536", "name": "shoprite", "address": "3745, aramingo avenue, philadelphia, pa, 19137", "category": [ "supermarket", "retail", "shoprite" ] }, "geometry": { "type": "Point", "coordinates": [ -75.0916386, 39.9943975 ] } },
{ "type": "Feature", "properties": { "id": "way/213271547", "name": "wendy's", "address": "3600, aramingo avenue, philadelphia, pa, 19134", "category": [ "fast_food", "retail", "wendy's" ] }, "geometry": { "type": "Point", "coordinates": [ -75.0968571, 39.9939009 ] } },
{ "type": "Feature", "properties": { "id": "way/213271554", "name": "extra space storage", "address": "2345, castor avenue, philadelphia, pa", "category": [ "doityourself", "warehouse" ] }, "geometry": { "type": "Point", "coordinates": [ -75.094188, 39.9956733 ] } },
{ "type": "Feature", "properties": { "id": "way/213271559", "name": "lowe's", "address": "3800, aramingo avenue, philadelphia, pa, 19137", "category": [ "doityourself", "retail", "lowe's" ] }, "geometry": { "type": "Point", "coordinates": [ -75.0912373, 39.9977497 ] } },
{ "type": "Feature", "properties": { "id": "way/213271570", "name": "monro muffler brake & service", "address": "3650, aramingo avenue, philadelphia, pa, 19134", "category": [ "car_repair", "retail", "monro muffler brake" ] }, "geometry": { "type": "Point", "coordinates": [ -75.0962731, 39.994171 ] } },
{ "type": "Feature", "properties": { "id": "way/213271573", "name": "mcdonald's", "address": "3725, aramingo avenue, philadelphia, pa, 19137", "category": [ "fast_food", "retail", "mcdonald's" ] }, "geometry": { "type": "Point", "coordinates": [ -75.0936927, 39.9946213 ] } },
{ "type": "Feature", "properties": { "id": "way/213271574", "name": "mattress firm", "address": "3664, aramingo avenue, philadelphia, pa, 19134", "category": [ "bed", "retail", "mattress firm" ] }, "geometry": { "type": "Point", "coordinates": [ -75.0955803, 39.9944674 ] } },
{ "type": "Feature", "properties": { "id": "way/213271578", "name": "jiffy lube", "address": "3652, aramingo avenue, philadelphia, pa, 19134", "category": [ "car_repair", "retail", "jiffy lube" ] }, "geometry": { "type": "Point", "coordinates": [ -75.0959376, 39.994348 ] } },
{ "type": "Feature", "properties": { "id": "way/213271581", "name": "taco bell", "address": "3619, aramingo avenue, philadelphia, pa, 19134", "category": [ "fast_food", "retail", "taco bell" ] }, "geometry": { "type": "Point", "coordinates": [ -75.095732, 39.9935984 ] } },
{ "type": "Feature", "properties": { "id": "way/213537649", "name": "roxy guitar", "address": "7026, ridge avenue, philadelphia, 19128", "category": [ "music", "yes" ] }, "geometry": { "type": "Point", "coordinates": [ -75.2295098, 40.0441673 ] } },
{ "type": "Feature", "properties": { "id": "way/222122351", "name": "lemon hill mansion", "address": null, "category": [ "museum", "detached" ] }, "geometry": { "type": "Point", "coordinates": [ -75.1872029, 39.9707246 ] } },
{ "type": "Feature", "properties": { "id": "way/222864954", "name": "penn's landing operations", "address": "south christopher columbus boulevard, philadelphia, pa, 19106", "category": [ "information", "yes" ] }, "geometry": { "type": "Point", "coordinates": [ -75.141598, 39.9433153 ] } },
{ "type": "Feature", "properties": { "id": "way/226298578", "name": "walmart supercenter", "address": "1675, south christopher columbus boulevard, philadelphia, pa, 19148", "category": [ "supermarket", "yes", "walmart" ] }, "geometry": { "type": "Point", "coordinates": [ -75.1414818, 39.926507 ] } },
{ "type": "Feature", "properties": { "id": "way/226298590", "name": "superfresh", "address": null, "category": [ "supermarket", "yes" ] }, "geometry": { "type": "Point", "coordinates": [ -75.1414023, 39.923502 ] } },
{ "type": "Feature", "properties": { "id": "way/226298629", "name": "mcdonald's", "address": "1601, christopher columbus boulevard, philadelphia, pa, 19148", "category": [ "fast_food", "retail", "mcdonald's" ] }, "geometry": { "type": "Point", "coordinates": [ -75.1425444, 39.9239905 ] } },
{ "type": "Feature", "properties": { "id": "way/226298666", "name": "the home depot", "address": "1615, south christopher columbus boulevard, philadelphia, pa, 19148", "category": [ "doityourself", "yes", "the home depot" ] }, "geometry": { "type": "Point", "coordinates": [ -75.1430804, 39.9260923 ] } },
{ "type": "Feature", "properties": { "id": "way/226306046", "name": "best buy", "address": "2300, south christopher columbus boulevard, philadelphia, pa, 19148", "category": [ "electronics", "yes", "best buy" ] }, "geometry": { "type": "Point", "coordinates": [ -75.1388772, 39.9157314 ] } },