{
"type": "FeatureCollection",
"name": "omf_santa_barbara",
"features": [
{ "type": "Feature", "properties": { "id": "46ae271b-5170-4148-90db-84624c8b7138", "name": "Peppers Estate", "category": "bed_and_breakfast", "address": "430 Hot Springs Rd" }, "geometry": { "type": "Point", "coordinates": [ -119.6406648, 34.4338329 ] } },
{ "type": "Feature", "properties": { "id": "dc8534cf-a86d-4caf-8adc-f112a05a42fa", "name": "Our Lady of Mt Carmel", "category": "evangelical_church", "address": "1332 E Valley Rd" }, "geometry": { "type": "Point", "coordinates": [ -119.640079, 34.436813 ] } },
{ "type": "Feature", "properties": { "id": "e4b45637-a20e-42bc-85a6-a80db7c98f9e", "name": "Val Verde", "category": "landmark_and_historical_building", "address": "2549 Sycamore Canyon Rd" }, "geometry": { "type": "Point", "coordinates": [ -119.649571, 34.440787 ] } },
{ "type": "Feature", "properties": { "id": "db8ce672-30ea-4de2-ae65-a2956adfdfc9", "name": "El Fureidis", "category": "landmark_and_historical_building", "address": "631 Parra Grande Ln" }, "geometry": { "type": "Point", "coordinates": [ -119.6466828, 34.4403035 ] } },
{ "type": "Feature", "properties": { "id": "6f2a3487-2124-4c3b-b891-2e8e1b5e6e0e", "name": "\"El Fureidis\" (Scarface's Mansion)", "category": "community_services_non_profits", "address": "631 Parra Grande Ln" }, "geometry": { "type": "Point", "coordinates": [ -119.6468159, 34.4403418 ] } },
{ "type": "Feature", "properties": { "id": "f29773a7-0edd-45ce-9779-7e3c3071fab2", "name": "Our Lady of Mount Carmel School, Santa Barbara, CA", "category": "high_school", "address": "530 Hot Springs Rd" }, "geometry": { "type": "Point", "coordinates": [ -119.6411636, 34.436368 ] } },
{ "type": "Feature", "properties": { "id": "f41ee33d-2880-4581-a84b-1e7836074b21", "name": "Our Lady of Mount Carmel Church", "category": "catholic_church", "address": "1300 E Valley Rd" }, "geometry": { "type": "Point", "coordinates": [ -119.6412286, 34.436344 ] } },
{ "type": "Feature", "properties": { "id": "718f7361-9981-4200-9ef2-358f36c75b7f", "name": "Zilles Architecture Group", "category": "architectural_designer", "address": "1284 E Valley Rd" }, "geometry": { "type": "Point", "coordinates": [ -119.642516, 34.436201 ] } },
{ "type": "Feature", "properties": { "id": "50023ed6-8405-42d5-a191-f08a3270eb1b", "name": "Diplomatt of California", "category": "translation_services", "address": "500 Meadow Wood Ln" }, "geometry": { "type": "Point", "coordinates": [ -119.647385129769418, 34.436278608901418 ] } },
{ "type": "Feature", "properties": { "id": "fcb25f59-6090-4441-9338-b5a66d701056", "name": "Hale Park", "category": "park", "address": "201 Eucalyptus Hill Dr" }, "geometry": { "type": "Point", "coordinates": [ -119.6565917, 34.4341467 ] } },
{ "type": "Feature", "properties": { "id": "9cc45a98-689b-48ff-8c24-6a296a37d811", "name": "Brooks Institute of Photography", "category": "event_photography", "address": "801 Alston Rd" }, "geometry": { "type": "Point", "coordinates": [ -119.65542, 34.43186 ] } },
{ "type": "Feature", "properties": { "id": "7807bc59-9b26-4e01-b7f0-09fd3caf8399", "name": "Montecito Fire Department Station No. 2", "category": "fire_department", "address": "2300 Sycamore Canyon Rd" }, "geometry": { "type": "Point", "coordinates": [ -119.6595068, 34.4404289 ] } },
{ "type": "Feature", "properties": { "id": "495fde90-fc23-4e4e-936e-8364ec62e3b6", "name": "Cold Spring School District", "category": "elementary_school", "address": "2243 Sycamore Canyon Rd" }, "geometry": { "type": "Point", "coordinates": [ -119.6611249, 34.4410758 ] } },
{ "type": "Feature", "properties": { "id": "6f785802-56b5-4ba3-860d-6b9c55ae345a", "name": "Lotusland", "category": "botanical_garden", "address": "695 Ashley Rd" }, "geometry": { "type": "Point", "coordinates": [ -119.6587198, 34.4427546 ] } },
{ "type": "Feature", "properties": { "id": "26ef9f05-d3d8-42a7-bd32-2fde7609d012", "name": "Ganna Walska Lotusland", "category": "museum", "address": "695 Ashley Rd" }, "geometry": { "type": "Point", "coordinates": [ -119.657750074456715, 34.442998622312501 ] } },
{ "type": "Feature", "properties": { "id": "6bd885de-27c0-4202-b869-431fc4c7d09a", "name": "Montecito Covenant Church", "category": "church_cathedral", "address": "671 Cold Springs Rd" }, "geometry": { "type": "Point", "coordinates": [ -119.6593009, 34.4431984 ] } },
{ "type": "Feature", "properties": { "id": "3ec53c3b-7588-40fe-86b2-d3066928cd50", "name": "Ganna Walska Lotusland", "category": "museum", "address": "695 Ashley Rd" }, "geometry": { "type": "Point", "coordinates": [ -119.6582296, 34.4437037 ] } },
{ "type": "Feature", "properties": { "id": "f0540634-362d-40ce-88d5-b5630b85ddb0", "name": "African Women Rising", "category": "community_services_non_profits", "address": "801 Cold Springs Rd" }, "geometry": { "type": "Point", "coordinates": [ -119.6588314, 34.4450702 ] } },
{ "type": "Feature", "properties": { "id": "e2055504-0398-4778-845c-eb2694c63f30", "name": "ACME Detection", "category": "contractor", "address": "1081 E Mountain Dr" }, "geometry": { "type": "Point", "coordinates": [ -119.6502373, 34.4487141 ] } },
{ "type": "Feature", "properties": { "id": "e6f84583-ea7a-4514-9ab9-50cbce52b4fb", "name": "Montecito Peak Hike", "category": "hiking_trail", "address": "East Mountain Dr" }, "geometry": { "type": "Point", "coordinates": [ -119.644808, 34.448644 ] } },
{ "type": "Feature", "properties": { "id": "dab33324-b2cd-4d15-87a0-6b7708e73ebf", "name": "Hot Springs Trail", "category": "natural_hot_springs", "address": null }, "geometry": { "type": "Point", "coordinates": [ -119.6458247, 34.4492223 ] } },
{ "type": "Feature", "properties": { "id": "1bed7e09-e363-46cd-931c-6ad348d413a4", "name": "Murchison Gym", "category": "chemical_plant", "address": null }, "geometry": { "type": "Point", "coordinates": [ -119.6623281, 34.4481498 ] } },
{ "type": "Feature", "properties": { "id": "adc23e85-e91b-415b-80eb-09686e5be1d8", "name": "Westmont College", "category": "college_university", "address": "955 La Paz Rd" }, "geometry": { "type": "Point", "coordinates": [ -119.6613214, 34.4503741 ] } },
{ "type": "Feature", "properties": { "id": "c5d02304-4c55-4386-bc4e-4ff88937b22f", "name": "Kerrwood Hall", "category": "campus_building", "address": "955 La Paz Rd" }, "geometry": { "type": "Point", "coordinates": [ -119.661575671201135, 34.450323435061541 ] } },
{ "type": "Feature", "properties": { "id": "41d5e447-7c32-4385-9b58-8d3d21c04a94", "name": "Westmont Ridley-Tree Museum of Art", "category": "art_museum", "address": "955 La Paz Rd" }, "geometry": { "type": "Point", "coordinates": [ -119.662, 34.4499233 ] } },
{ "type": "Feature", "properties": { "id": "f3628bd8-7b03-45ff-88ea-44e0696c70ef", "name": "Roger John Voskuyl Library", "category": "library", "address": "955 La Paz Rd" }, "geometry": { "type": "Point", "coordinates": [ -119.6624635, 34.4500914 ] } },
{ "type": "Feature", "properties": { "id": "0ef508e4-0f61-4325-9ce0-e8eab7d16431", "name": "Armington Halls", "category": "pet_store", "address": "955 La Paz Rd" }, "geometry": { "type": "Point", "coordinates": [ -119.662474, 34.450282 ] } },
{ "type": "Feature", "properties": { "id": "96c7881a-8b9f-4af4-964e-52c0bae4ee8a", "name": "Russell Carr Field", "category": "baseball_field", "address": "955 La Paz Rd" }, "geometry": { "type": "Point", "coordinates": [ -119.661546182209023, 34.45163680463785 ] } },
{ "type": "Feature", "properties": { "id": "d59faa8f-c3f5-4419-9a50-d5c3d2e84993", "name": "Dining Commons", "category": "cafeteria", "address": "955 La Paz Rd" }, "geometry": { "type": "Point", "coordinates": [ -119.661546182209023, 34.45163680463785 ] } },
{ "type": "Feature", "properties": { "id": "b47e59c9-4357-4cb0-873e-74346ccd4c2a", "name": "Hugh R. Murchison Physical Education Complex", "category": "gym", "address": "955 La Paz Rd" }, "geometry": { "type": "Point", "coordinates": [ -119.661546182209023, 34.45163680463785 ] } },
{ "type": "Feature", "properties": { "id": "3acc6878-96c0-49c1-b6e9-437645541977", "name": "UPS Authorized Shipping Outlet", "category": "courier_and_delivery_services", "address": "955 La Paz Rd" }, "geometry": { "type": "Point", "coordinates": [ -119.66045, 34.451347 ] } },
{ "type": "Feature", "properties": { "id": "a79a6f68-148b-42cc-9bfb-4ba8262f5180", "name": "Clark Halls", "category": "accommodation", "address": "955 La Paz Rd" }, "geometry": { "type": "Point", "coordinates": [ -119.6602757, 34.4512761 ] } },
{ "type": "Feature", "properties": { "id": "462e4232-feda-464c-9d81-fbf894ae7901", "name": "Marissa Daisy", "category": "event_photography", "address": "955 La Paz Rd" }, "geometry": { "type": "Point", "coordinates": [ -119.6607, 34.45219 ] } },
{ "type": "Feature", "properties": { "id": "3af5d560-22b9-46cb-9130-7f4644474a53", "name": "Deane School Chapel", "category": "religious_organization", "address": "955 La Paz Rd" }, "geometry": { "type": "Point", "coordinates": [ -119.6607, 34.45219 ] } },
{ "type": "Feature", "properties": { "id": "c6d529be-bf03-4d57-9140-dfa3e4bdae89", "name": "Integration Hypnotherapy", "category": "naturopathic_holistic", "address": "261 E Mountain Dr" }, "geometry": { "type": "Point", "coordinates": [ -119.6652073, 34.4516612 ] } },
{ "type": "Feature", "properties": { "id": "e307e618-5b3f-47cb-a24c-b5900cf2fa86", "name": "Area 51 Musical Service", "category": "arts_and_entertainment", "address": "742 Coyote Rd" }, "geometry": { "type": "Point", "coordinates": [ -119.668118, 34.449784 ] } },
{ "type": "Feature", "properties": { "id": "dc5a5aca-20fe-4a5a-ae16-04d2587ef37d", "name": "Russell Carr Field", "category": "baseball_field", "address": "955 La Paz Rd" }, "geometry": { "type": "Point", "coordinates": [ -119.6638734, 34.4486754 ] } },
{ "type": "Feature", "properties": { "id": "0b7c9179-19b4-47d6-ad2a-bcdd647c4de1", "name": "Westmont Bookstore", "category": "bookstore", "address": "955 La Paz Rd" }, "geometry": { "type": "Point", "coordinates": [ -119.6632747, 34.4477153 ] } },
{ "type": "Feature", "properties": { "id": "20955f2d-f969-42b9-ae86-854bafc90bfa", "name": "Bon Appétit at Westmont College", "category": "restaurant", "address": "955 La Paz Rd" }, "geometry": { "type": "Point", "coordinates": [ -119.6632747, 34.4477153 ] } },
{ "type": "Feature", "properties": { "id": "c6084f43-dec9-42fd-99ef-e21527ea25fd", "name": "Thomas Neches & Co - Thomas M Neches CPA", "category": "accountant", "address": "724 Westmont Rd" }, "geometry": { "type": "Point", "coordinates": [ -119.6668746, 34.4456829 ] } },
{ "type": "Feature", "properties": { "id": "c34607e1-94b0-4ea1-9565-181a6beaf488", "name": "Dayal Studio Inc.", "category": "music_production", "address": "306 Sherman Rd" }, "geometry": { "type": "Point", "coordinates": [ -119.679072, 34.446012 ] } },
{ "type": "Feature", "properties": { "id": "773a3b64-9131-4bec-8428-f86dba1c392b", "name": "Pacific Structural & Forensic Engineers Group", "category": "building_supply_store", "address": "498 Conejo Rd" }, "geometry": { "type": "Point", "coordinates": [ -119.676288183530019, 34.442710062803805 ] } },
{ "type": "Feature", "properties": { "id": "a7072f83-cf67-4680-90b3-2bc5269f551d", "name": "Aloes in Wonderland", "category": "botanical_garden", "address": "114 Conejo Rd" }, "geometry": { "type": "Point", "coordinates": [ -119.681739, 34.4433778 ] } },
{ "type": "Feature", "properties": { "id": "e9a0e5b3-698d-43d4-a480-34cd99e8f075", "name": "Leadership Services", "category": "professional_services", "address": "219 Conejo Rd" }, "geometry": { "type": "Point", "coordinates": [ -119.682771, 34.444797 ] } },
{ "type": "Feature", "properties": { "id": "2161519a-88fc-4d79-ba83-04f92c7ca32d", "name": "California State Route 192", "category": "landmark_and_historical_building", "address": null }, "geometry": { "type": "Point", "coordinates": [ -119.68008, 34.44681 ] } },
{ "type": "Feature", "properties": { "id": "1e93097b-e66d-4982-8bac-3d5edef12dc8", "name": "Parma Park", "category": "park", "address": "2120 Stanwood Dr" }, "geometry": { "type": "Point", "coordinates": [ -119.6831228, 34.4476734 ] } },
{ "type": "Feature", "properties": { "id": "91f9a340-57c1-4de2-b423-9fab621eba46", "name": "Jian Tools For Sales", "category": "home_improvement_store", "address": "401 El Cielito Rd" }, "geometry": { "type": "Point", "coordinates": [ -119.693491992651133, 34.451597158309845 ] } },
{ "type": "Feature", "properties": { "id": "c21a6d29-fc2b-42f1-90d5-d3faaec33720", "name": "Santa Barbara Tennis Club", "category": "tennis_court", "address": "2375 Foothill Rd" }, "geometry": { "type": "Point", "coordinates": [ -119.7069073, 34.4455399 ] } },
{ "type": "Feature", "properties": { "id": "bec600bb-8a91-4471-a94d-918cfec4ed03", "name": "Avrick Direct", "category": "advertising_agency", "address": "1021 Tremonto Rd" }, "geometry": { "type": "Point", "coordinates": [ -119.706932696545053, 34.444039873308469 ] } },
{ "type": "Feature", "properties": { "id": "6d456ecd-a856-427f-b900-c224bc4acb18", "name": "Ayan Tour and Travels Siliguri", "category": "lounge", "address": "898-700 Midvale Ln, San Jose, CA 95136" }, "geometry": { "type": "Point", "coordinates": [ -119.705518484115615, 34.444061159419064 ] } },
{ "type": "Feature", "properties": { "id": "1db91f4a-a926-4268-8ef6-f6bd548cf6f5", "name": "Cold Springs Landscapes", "category": "building_supply_store", "address": "1809 Hillcrest Rd" }, "geometry": { "type": "Point", "coordinates": [ -119.69651261959379, 34.444526564602313 ] } },
{ "type": "Feature", "properties": { "id": "f934991c-b806-450d-b822-81c42e85e8f4", "name": "Sheffield Reservoir", "category": "park", "address": "530 Mountain Dr #490" }, "geometry": { "type": "Point", "coordinates": [ -119.694486, 34.4457891 ] } },
{ "type": "Feature", "properties": { "id": "ab29b1bb-d912-4bdf-9e22-633c9e7831fd", "name": "Tiki Cat Lounge", "category": "lounge", "address": null }, "geometry": { "type": "Point", "coordinates": [ -119.6865006, 34.4395447 ] } },
{ "type": "Feature", "properties": { "id": "cac97668-69bf-431f-8cb1-d2e91362696b", "name": "Heaven", "category": "hair_salon", "address": "830 Arbolado Rd" }, "geometry": { "type": "Point", "coordinates": [ -119.687076376933618, 34.438204699642974 ] } },
{ "type": "Feature", "properties": { "id": "51179cd8-7ba6-4ae7-9ecf-2ce44202d5b0", "name": "Sylvan Park", "category": "park", "address": "1321 Dover Rd" }, "geometry": { "type": "Point", "coordinates": [ -119.6937578, 34.4377985 ] } },
{ "type": "Feature", "properties": { "id": "0cb2e962-fa8d-45c3-aa1a-dc9aedd3c2bb", "name": "Santa Barbara Middle School", "category": "middle_school", "address": "1321 Alameda Padre Serra" }, "geometry": { "type": "Point", "coordinates": [ -119.6948687, 34.4370379 ] } },
{ "type": "Feature", "properties": { "id": "b2c7ef8f-cc4a-4f16-940c-e6dad93952bd", "name": "Brooks Institute of Photography Jefferson Campus", "category": "professional_services", "address": "1321 Alameda Padre Serra" }, "geometry": { "type": "Point", "coordinates": [ -119.6948017, 34.4369263 ] } },
{ "type": "Feature", "properties": { "id": "70db1ab4-f6a7-4953-923f-79bc6c52f974", "name": "Franceschi Park", "category": "park", "address": "1510 Mission Ridge Rd" }, "geometry": { "type": "Point", "coordinates": [ -119.694493, 34.4402791 ] } },
{ "type": "Feature", "properties": { "id": "3c47d830-89c9-4b08-89eb-da6164e6985b", "name": "Architecture J.A.", "category": "architectural_designer", "address": "2296 Las Tunas Rd" }, "geometry": { "type": "Point", "coordinates": [ -119.7070009, 34.4409678 ] } },
{ "type": "Feature", "properties": { "id": "c6ad4edd-3e66-4982-b207-4762eff85ea9", "name": "Santa Barbara Magazine", "category": "topic_publisher", "address": "2064 Alameda Padre Serra" }, "geometry": { "type": "Point", "coordinates": [ -119.7056739, 34.4397451 ] } },
{ "type": "Feature", "properties": { "id": "d666814a-ce49-428f-bc5d-c232f771d63a", "name": "The Weiser Agency", "category": "insurance_agency", "address": "2064 Alameda Padre Serra" }, "geometry": { "type": "Point", "coordinates": [ -119.7057875, 34.4397907 ] } },
{ "type": "Feature", "properties": { "id": "1b2ba495-9882-4ba3-8d23-9d860957a4ae", "name": "Hospice of Santa Barbara", "category": "hospice", "address": "2050 Alameda Padre Serra" }, "geometry": { "type": "Point", "coordinates": [ -119.7065035, 34.4396002 ] } },
{ "type": "Feature", "properties": { "id": "bd09ae8a-6fff-4332-8dc4-42d6cbd37b52", "name": "Visionary Solutions", "category": "professional_services", "address": "2060 Alameda Padre Serra" }, "geometry": { "type": "Point", "coordinates": [ -119.7066533, 34.4395824 ] } },
{ "type": "Feature", "properties": { "id": "0568f6c1-69c1-453d-a4a0-182496cdc4ac", "name": "ALT LLC", "category": "engineering_services", "address": "2062 Alameda Padre Serra" }, "geometry": { "type": "Point", "coordinates": [ -119.7051625, 34.4397581 ] } },
{ "type": "Feature", "properties": { "id": "ad3c871f-bbed-44a9-8e9a-63f0919a5696", "name": "The Dining Room at El Encanto", "category": "restaurant", "address": "El Encanto, 800 Alvarado Pl" }, "geometry": { "type": "Point", "coordinates": [ -119.7042662, 34.438882 ] } },
{ "type": "Feature", "properties": { "id": "76065496-543b-41e9-bccd-e630a0506826", "name": "The Spa at El Encanto", "category": "spas", "address": "800 Alvarado Pl" }, "geometry": { "type": "Point", "coordinates": [ -119.7041339, 34.4389329 ] } },
{ "type": "Feature", "properties": { "id": "f99d3e3e-93d8-44e2-8508-0f2466d3c4bd", "name": "Santa Barbara Riviera", "category": "landmark_and_historical_building", "address": null }, "geometry": { "type": "Point", "coordinates": [ -119.7041432, 34.4389793 ] } },
{ "type": "Feature", "properties": { "id": "a1ff02fa-fee2-4338-96a0-20b43bbc15b3", "name": "Take 5 Bodywork", "category": "massage", "address": "2020 Alameda Padre Serra" }, "geometry": { "type": "Point", "coordinates": [ -119.7047908, 34.439332 ] } },
{ "type": "Feature", "properties": { "id": "761b2c1b-6a27-4782-a589-fc9f7622ed70", "name": "Edward Jones - Financial Advisor: Morgan Cherner", "category": "financial_service", "address": "2020 Alameda Padre Serra Ste 200" }, "geometry": { "type": "Point", "coordinates": [ -119.704877720211499, 34.439258183543714 ] } },
{ "type": "Feature", "properties": { "id": "554511b3-56a7-4146-b2e0-442f216a80fb", "name": "Jackie Toth, Licensed Psychotherapist", "category": "psychotherapist", "address": "2020 Alameda Padre Serra" }, "geometry": { "type": "Point", "coordinates": [ -119.7049097, 34.4390719 ] } },
{ "type": "Feature", "properties": { "id": "0f627199-35da-469c-884b-82d3c0b16d93", "name": "Ultimate Property Management", "category": "property_management", "address": "2020 Alameda Padre Serra" }, "geometry": { "type": "Point", "coordinates": [ -119.7048078, 34.439062 ] } },
{ "type": "Feature", "properties": { "id": "d6b0eae2-23d4-4c31-a766-2a8942386132", "name": "El Encanto", "category": "hotel", "address": "800 Alvarado Pl" }, "geometry": { "type": "Point", "coordinates": [ -119.7044259, 34.4390492 ] } },
{ "type": "Feature", "properties": { "id": "115ec942-5694-4466-a47c-bd248959c1e0", "name": "Belmond El Encanto", "category": "hotel", "address": "800 Alvarado Pl" }, "geometry": { "type": "Point", "coordinates": [ -119.704302, 34.438881 ] } },
{ "type": "Feature", "properties": { "id": "8a64145c-2187-41fb-9321-b161c1c460a2", "name": "Belmond El Encanto", "category": "resort", "address": "800 Alvarado Pl" }, "geometry": { "type": "Point", "coordinates": [ -119.7047, 34.4388692 ] } },
{ "type": "Feature", "properties": { "id": "9be40335-c373-4ba2-bd03-089a7c7087a0", "name": "Edward Jones - Financial Advisor: Derek L Pacheco", "category": "financial_service", "address": "2020 Alameda Padre Serra Ste 200" }, "geometry": { "type": "Point", "coordinates": [ -119.70494068412448, 34.439019760953379 ] } },
{ "type": "Feature", "properties": { "id": "ebd4a2b6-dd96-4c45-8bcb-e8006e080b9d", "name": "Expond", "category": "information_technology_company", "address": "2020 Alameda Padre Serra Ste 200" }, "geometry": { "type": "Point", "coordinates": [ -119.7051976, 34.4388315 ] } },
{ "type": "Feature", "properties": { "id": "b1d69244-9021-4785-9b4a-6c024c5ed66b", "name": "Riviera Park Gardens", "category": "park", "address": "2030 Alameda Padre Serra" }, "geometry": { "type": "Point", "coordinates": [ -119.70558, 34.439158 ] } },
{ "type": "Feature", "properties": { "id": "94f5e3a2-db17-4210-9784-57b8c2edfc96", "name": "Blue Horizon Management Company", "category": "property_management", "address": "2020 Alameda Padre Serra Ste 220" }, "geometry": { "type": "Point", "coordinates": [ -119.70519, 34.43907 ] } },
{ "type": "Feature", "properties": { "id": "f5d7f550-cf22-4e07-9160-fc01f4a6a954", "name": "Horny Toad Activewear", "category": "clothing_store", "address": "2020 Alameda Padre Serra Ste 125" }, "geometry": { "type": "Point", "coordinates": [ -119.705581733051844, 34.439225287776075 ] } },
{ "type": "Feature", "properties": { "id": "52a8ca3c-75dd-45a0-9ed6-a06c38f4bcf3", "name": "Granada Theater", "category": "theatre", "address": "2020 Alameda Padre Serra" }, "geometry": { "type": "Point", "coordinates": [ -119.705582, 34.439225 ] } },
{ "type": "Feature", "properties": { "id": "b828e8b7-b69e-4940-812f-55607c525245", "name": "Wiser Capital", "category": "hvac_services", "address": "2020 Alameda Padre Serra" }, "geometry": { "type": "Point", "coordinates": [ -119.706071, 34.439101 ] } },
{ "type": "Feature", "properties": { "id": "bde9c743-21cd-4a93-9261-768174bced6e", "name": "Andrulaitis Mixon Architects", "category": "architectural_designer", "address": "2040 Alameda Padre Serra" }, "geometry": { "type": "Point", "coordinates": [ -119.7066734, 34.4389038 ] } },
{ "type": "Feature", "properties": { "id": "561382f3-a1e1-41a5-9b7d-131a50bbbfe7", "name": "Wilderness Youth Project", "category": "youth_organizations", "address": "2040 Alameda Padre Serra" }, "geometry": { "type": "Point", "coordinates": [ -119.7066784, 34.4389011 ] } },
{ "type": "Feature", "properties": { "id": "9dc3f0e6-daeb-4c38-895c-617bccef9552", "name": "Liberty Mutual Insurance", "category": "auto_insurance", "address": "2040 Alameda Padre Serra Ste 106" }, "geometry": { "type": "Point", "coordinates": [ -119.706672668457003, 34.438907623291001 ] } },
{ "type": "Feature", "properties": { "id": "934bc903-2825-4371-83c8-0c5128dc37e4", "name": "SBIFF Riviera Theatre", "category": "cinema", "address": "2044 Alameda Padre Serra" }, "geometry": { "type": "Point", "coordinates": [ -119.7070063, 34.4389387 ] } },
{ "type": "Feature", "properties": { "id": "c22cda0c-99da-4ba4-9141-b9b533985c38", "name": "Santa Barbara Zen Center", "category": "buddhist_temple", "address": "2050 Alameda Padre Serra" }, "geometry": { "type": "Point", "coordinates": [ -119.7066813, 34.4388604 ] } },
{ "type": "Feature", "properties": { "id": "9cbe8571-3b4b-4859-ab12-5f9129490bc3", "name": "Ontraport", "category": "software_development", "address": "2030 Alameda Padre Serra" }, "geometry": { "type": "Point", "coordinates": [ -119.7059286, 34.4388801 ] } },
{ "type": "Feature", "properties": { "id": "18443c76-5129-4412-a417-88d4bca3549e", "name": "Hillside Park", "category": "park", "address": "Alameda Padre Serra" }, "geometry": { "type": "Point", "coordinates": [ -119.7046274, 34.4382888 ] } },
{ "type": "Feature", "properties": { "id": "cf08ff96-13ef-4a03-ac73-a1d60c3dc29d", "name": "Orpet Park", "category": "park", "address": "824 Moreno Rd" }, "geometry": { "type": "Point", "coordinates": [ -119.7047785, 34.4378878 ] } },
{ "type": "Feature", "properties": { "id": "e33653ca-94b5-4bc7-bf59-2380c822c0ef", "name": "New York Street Candles", "category": "home_goods_store", "address": "1826 Loma St" }, "geometry": { "type": "Point", "coordinates": [ -119.7058294, 34.437095 ] } },
{ "type": "Feature", "properties": { "id": "84250fad-d6db-4962-a3ff-47ddae125fc3", "name": "Frog Wall", "category": "museum", "address": "1600 Paterna Rd" }, "geometry": { "type": "Point", "coordinates": [ -119.6990487, 34.4385311 ] } },
{ "type": "Feature", "properties": { "id": "13bd3eca-8443-4067-bb50-752a30304dba", "name": "Frog Farm", "category": "church_cathedral", "address": "1630 Paterna Rd" }, "geometry": { "type": "Point", "coordinates": [ -119.6995957, 34.4384139 ] } },
{ "type": "Feature", "properties": { "id": "bad567bf-3902-42e0-bbad-d2053522dad5", "name": "Energy Tattoo", "category": "tattoo_and_piercing", "address": "428 State St" }, "geometry": { "type": "Point", "coordinates": [ -119.7007451, 34.4347239 ] } },
{ "type": "Feature", "properties": { "id": "b13579c9-b67e-40d9-8cd1-cb5b09f0c165", "name": "Majestic Model 011", "category": "gym", "address": "11735 1/2 Grand Ave." }, "geometry": { "type": "Point", "coordinates": [ -119.704132, 34.435611 ] } },
{ "type": "Feature", "properties": { "id": "4f3929d8-2074-4e2c-959e-6f9918e03a04", "name": "Alchemy On Demand", "category": "public_relations", "address": "1774 Prospect Ave" }, "geometry": { "type": "Point", "coordinates": [ -119.705726623535156, 34.435497283935547 ] } },
{ "type": "Feature", "properties": { "id": "a5b9420a-5741-4048-bfbe-7c79f57f6ecd", "name": "Santa Barbara Sport Fishing", "category": "boat_rental_and_training", "address": "1762 Prospect Ave" }, "geometry": { "type": "Point", "coordinates": [ -119.705461, 34.435396 ] } },
{ "type": "Feature", "properties": { "id": "60ea76b3-ce5b-47c6-b2c8-bd8e5be24361", "name": "Dr. Brent Moelleken", "category": "plastic_surgeon", "address": "601 E Arrellaga St" }, "geometry": { "type": "Point", "coordinates": [ -119.70262, 34.43412 ] } },
{ "type": "Feature", "properties": { "id": "2bc31ef9-cd8e-4332-aace-8d0d2df2def3", "name": "Robert W. Sheffield, MD FACS - Plastic Surgery Santa Barbara", "category": "cosmetic_surgeon", "address": "601 E Arrellaga St #101" }, "geometry": { "type": "Point", "coordinates": [ -119.7026513, 34.4340918 ] } },
{ "type": "Feature", "properties": { "id": "938749a3-bd0e-45fa-98ab-8fa3d10cb30e", "name": "Pacheco-Medina Dental Corporation", "category": "dentist", "address": "601 E Arrellaga St" }, "geometry": { "type": "Point", "coordinates": [ -119.7026552, 34.4340074 ] } },
{ "type": "Feature", "properties": { "id": "a154fd48-1576-40c9-8bef-d26b8ac37bf4", "name": "Augusto Castaneda MD", "category": "doctor", "address": "601 E Arrellaga St" }, "geometry": { "type": "Point", "coordinates": [ -119.702675, 34.433991 ] } },
{ "type": "Feature", "properties": { "id": "28fe2720-1fe3-4400-9fcb-87c7576eeb93", "name": "Raymond J Johansen DMD Inc", "category": "dentist", "address": "601 E Arrellaga St" }, "geometry": { "type": "Point", "coordinates": [ -119.7026898, 34.4339974 ] } },
{ "type": "Feature", "properties": { "id": "731d5e94-5434-4941-adfa-19e08feae086", "name": "Full Spectrum Recovery Coaching", "category": "counseling_and_mental_health", "address": "601 E Arrellaga St" }, "geometry": { "type": "Point", "coordinates": [ -119.7027216, 34.4340352 ] } },
{ "type": "Feature", "properties": { "id": "def26164-c91a-441d-a151-341b9172fc4e", "name": "Kind Dermatology and Medical Spa", "category": "dermatologist", "address": "601 E Arrellaga St" }, "geometry": { "type": "Point", "coordinates": [ -119.7027269, 34.434044 ] } },
{ "type": "Feature", "properties": { "id": "8466ed9d-0215-4d8e-b85b-f889eef963b8", "name": "SB Aesthetics Medical Spa", "category": "day_spa", "address": "601 E Arrellaga St #101" }, "geometry": { "type": "Point", "coordinates": [ -119.7025686, 34.4339555 ] } },
{ "type": "Feature", "properties": { "id": "8a7baa46-0bbc-4321-829f-7b18c86a3549", "name": "Tona @ DCA", "category": "acupuncture", "address": "601 E Arrellaga St Ste 202" }, "geometry": { "type": "Point", "coordinates": [ -119.702514, 34.434052 ] } },
{ "type": "Feature", "properties": { "id": "220549cb-7c23-48ab-8c9e-439e395556ab", "name": "Neighborhood Acupuncture", "category": "acupuncture", "address": "601 E Arrellaga St" }, "geometry": { "type": "Point", "coordinates": [ -119.7024253, 34.4339976 ] } },
{ "type": "Feature", "properties": { "id": "0e6ddec8-ee3c-409a-bbd7-6b84df776059", "name": "Bella Riviera SB", "category": "real_estate", "address": "601 E Micheltorena St" }, "geometry": { "type": "Point", "coordinates": [ -119.701738, 34.433619 ] } },
{ "type": "Feature", "properties": { "id": "cf6ae612-499f-4fff-b0d2-c10bd41cd3b7", "name": "Thompson Michael W DDS", "category": "general_dentistry", "address": "536 E Arrellaga St Ste 104" }, "geometry": { "type": "Point", "coordinates": [ -119.702911, 34.43336 ] } },
{ "type": "Feature", "properties": { "id": "46c13f3f-8f44-40f8-ad45-d9e3ee03a868", "name": "Ferrel's Chiropractic", "category": "chiropractor", "address": "533 E Micheltorena St" }, "geometry": { "type": "Point", "coordinates": [ -119.7017795, 34.432541 ] } },
{ "type": "Feature", "properties": { "id": "8f863a92-3869-4bfd-b00d-23badccc7188", "name": "Coastal View Surgery", "category": "surgical_center", "address": "536 E Arrellaga St" }, "geometry": { "type": "Point", "coordinates": [ -119.7024891, 34.4329693 ] } },
{ "type": "Feature", "properties": { "id": "d7aa117f-8e5a-442a-a065-3cad5f93c8fd", "name": "Kendall, Rohde & Associates", "category": "dentist", "address": "536 E Arrellaga St" }, "geometry": { "type": "Point", "coordinates": [ -119.7025419, 34.4331535 ] } },
{ "type": "Feature", "properties": { "id": "9dabffcc-cef1-4afe-96c0-53f837858350", "name": "Santa Barbara Fertility Center", "category": "fertility", "address": "536 E Arrellaga St" }, "geometry": { "type": "Point", "coordinates": [ -119.7026023, 34.4331488 ] } },
{ "type": "Feature", "properties": { "id": "9780aacd-d940-400d-8ba5-19a21b502c10", "name": "Plastic Surgery and Hand Surgery Medical Clinic", "category": "plastic_surgeon", "address": "511 E Arrellaga St" }, "geometry": { "type": "Point", "coordinates": [ -119.7037228, 34.43288 ] } },
{ "type": "Feature", "properties": { "id": "3f8e55b8-88aa-474e-9911-7cdacc6acdab", "name": "Nancy J Madsen, Attorney & Mediator", "category": "legal_services", "address": "1714 Olive St" }, "geometry": { "type": "Point", "coordinates": [ -119.705623966332183, 34.43387446569627 ] } },
{ "type": "Feature", "properties": { "id": "a3527290-d82c-4884-b42d-f9a3614ab7d9", "name": "E Islay St", "category": "hotel", "address": "424 E Islay St" }, "geometry": { "type": "Point", "coordinates": [ -119.706603, 34.433548 ] } },
{ "type": "Feature", "properties": { "id": "b2842f1d-0bae-41e9-a852-167af90fc803", "name": "Santa Barbara, Montecito, Hope Ranch, Goleta and Carpenteria", "category": "real_estate_agent", "address": "418 E Islay St" }, "geometry": { "type": "Point", "coordinates": [ -119.706719, 34.433457 ] } },
{ "type": "Feature", "properties": { "id": "5de712f7-49e2-4e7e-89a4-52abc31bec9b", "name": "Chris Casebeer And Company", "category": "real_estate_agent", "address": "418 E Islay St" }, "geometry": { "type": "Point", "coordinates": [ -119.70671, 34.433428 ] } },
{ "type": "Feature", "properties": { "id": "1253ebed-db34-49b4-a704-b308981e6533", "name": "Fiber Seal of Santa Barbara", "category": "carpet_cleaning", "address": "421 E Valerio St" }, "geometry": { "type": "Point", "coordinates": [ -119.706019, 34.432981 ] } },
{ "type": "Feature", "properties": { "id": "4761ddf2-874e-447e-a63c-515d0b7b393c", "name": "Del Bonis Carpet Cleaning", "category": "carpet_store", "address": "421 E Valerio St" }, "geometry": { "type": "Point", "coordinates": [ -119.7061873, 34.4332105 ] } },
{ "type": "Feature", "properties": { "id": "f954dd0d-c043-4401-b7ca-54a54ff6f185", "name": "Alchemy On Demand", "category": "advertising_agency", "address": "1774 Prospect Ave" }, "geometry": { "type": "Point", "coordinates": [ -119.7060813, 34.4328555 ] } },
{ "type": "Feature", "properties": { "id": "68d195a5-8ec1-49cc-8d47-032272242ff8", "name": "Community Planet Foundation", "category": "community_services_non_profits", "address": "1611 Olive St" }, "geometry": { "type": "Point", "coordinates": [ -119.7044564, 34.432543 ] } },
{ "type": "Feature", "properties": { "id": "873c63d3-2144-4f78-84c1-046c3a5c3ac6", "name": "Tony Mac Photo Video", "category": "video_film_production", "address": "1615 Olive St Ste B" }, "geometry": { "type": "Point", "coordinates": [ -119.7047806, 34.4324379 ] } },
{ "type": "Feature", "properties": { "id": "3a2f43f1-ae8e-41f9-81ef-7fa0e4afe66e", "name": "Ben McWilliams DDS and Lee Neuenschwander DDS", "category": "dentist", "address": "515 E Micheltorena St" }, "geometry": { "type": "Point", "coordinates": [ -119.7023576, 34.4318746 ] } },
{ "type": "Feature", "properties": { "id": "1eb4b73b-0976-41ee-97e3-7c160b32cf04", "name": "Stuart R. Winthrop, MD, FACS", "category": "eye_care_clinic", "address": "515 E Micheltorena St" }, "geometry": { "type": "Point", "coordinates": [ -119.7024023, 34.4319541 ] } },
{ "type": "Feature", "properties": { "id": "2f2362bb-2ae0-4631-9919-15dd1a911e15", "name": "California Retina Consultants", "category": "optometrist", "address": "515 E Micheltorena St Ste C" }, "geometry": { "type": "Point", "coordinates": [ -119.702328308919576, 34.432211749855902 ] } },
{ "type": "Feature", "properties": { "id": "d718ce8d-a37c-4842-a4ec-104d18f667de", "name": "Eternity Health Partners", "category": "weight_loss_center", "address": "533 E Micheltorena St" }, "geometry": { "type": "Point", "coordinates": [ -119.7018013, 34.4323933 ] } },
{ "type": "Feature", "properties": { "id": "03106760-f872-48ad-a169-befd8a1a1576", "name": "Mosaic Therapy Collective", "category": "community_services_non_profits", "address": "533 E Micheltorena St" }, "geometry": { "type": "Point", "coordinates": [ -119.7017967, 34.4323801 ] } },
{ "type": "Feature", "properties": { "id": "e228cff0-6cf9-411a-b633-d9f9be4ed22c", "name": "Riviera Brewing Company", "category": "brewery", "address": "536 E Micheltorena St" }, "geometry": { "type": "Point", "coordinates": [ -119.7014978, 34.432343 ] } },
{ "type": "Feature", "properties": { "id": "b4580375-577f-4c0f-be98-845da677ad7f", "name": "Pueblo Radiology Med Group Inc", "category": "diagnostic_imaging", "address": "2320 Bath St #113" }, "geometry": { "type": "Point", "coordinates": [ -119.701408, 34.432642 ] } },
{ "type": "Feature", "properties": { "id": "af35438f-2dbe-48cb-ac75-adcb7fe7b9d1", "name": "Ingenious Style 011", "category": "gym", "address": "11018 W. Micheltorena" }, "geometry": { "type": "Point", "coordinates": [ -119.700374, 34.433334 ] } },
{ "type": "Feature", "properties": { "id": "9cd1c3a7-bca7-4475-b64b-0ad6a097b43e", "name": "Kirkpatrick & Associates", "category": "insurance_agency", "address": "731 E Micheltorena St" }, "geometry": { "type": "Point", "coordinates": [ -119.698213, 34.433819 ] } },
{ "type": "Feature", "properties": { "id": "ae3dff71-236a-4420-82e6-c2e77177f513", "name": "Heather’s Country Cottage Preschool", "category": "preschool", "address": null }, "geometry": { "type": "Point", "coordinates": [ -119.69679, 34.43345 ] } },
{ "type": "Feature", "properties": { "id": "809098b4-27dd-4822-a100-a7a14911d723", "name": "Sycamore Apartments", "category": "landmark_and_historical_building", "address": "1120 N Nopal St" }, "geometry": { "type": "Point", "coordinates": [ -119.6947634, 34.4316101 ] } },
{ "type": "Feature", "properties": { "id": "3824151e-e744-462f-8ab4-3ecbb2cd9059", "name": "Patricia Calonne PhD", "category": "counseling_and_mental_health", "address": "741 E Anapamu St" }, "geometry": { "type": "Point", "coordinates": [ -119.69583, 34.431842 ] } },
{ "type": "Feature", "properties": { "id": "e1f8d469-5551-4373-be6e-9d57e5c93a6c", "name": "Nlovesbadges", "category": "womens_clothing_store", "address": null }, "geometry": { "type": "Point", "coordinates": [ -119.6945, 34.43185 ] } },
{ "type": "Feature", "properties": { "id": "27f466f9-f915-4037-a172-581a8f60a1e1", "name": "Smog-It", "category": "automotive_services_and_repair", "address": "836 E Anapamu St" }, "geometry": { "type": "Point", "coordinates": [ -119.694306313999746, 34.432442248263648 ] } },
{ "type": "Feature", "properties": { "id": "8b1d2ab8-6687-4055-b654-b65107bf36b6", "name": "Kennedy's Automotive", "category": "automotive_repair", "address": "836 E Anapamu St" }, "geometry": { "type": "Point", "coordinates": [ -119.694298500417943, 34.432451812974733 ] } },
{ "type": "Feature", "properties": { "id": "253945b0-05a9-4b7e-bed6-0c7f3feefd5b", "name": "The Rhythmic Arts Project", "category": "specialty_school", "address": "1115 N Milpas St" }, "geometry": { "type": "Point", "coordinates": [ -119.6938198, 34.4321507 ] } },
{ "type": "Feature", "properties": { "id": "8e2ed6d8-e9bf-4488-94d4-6a243bc3c934", "name": "Lily Guild", "category": "information_technology_company", "address": "935 E Carrillo Rd" }, "geometry": { "type": "Point", "coordinates": [ -119.690618537808959, 34.432017759148877 ] } },
{ "type": "Feature", "properties": { "id": "b970f5b5-c615-4e79-9f6d-c79f4489f992", "name": "Toddy's Christmas Trees", "category": "pop_up_shop", "address": "1122 N Milpas St" }, "geometry": { "type": "Point", "coordinates": [ -119.69374, 34.432612 ] } },
{ "type": "Feature", "properties": { "id": "700643eb-ac8d-4527-ac2b-dd12cd60637b", "name": "Dajen Productions", "category": "video_film_production", "address": "231 W Pedregosa St" }, "geometry": { "type": "Point", "coordinates": [ -119.69559, 34.43316 ] } },
{ "type": "Feature", "properties": { "id": "2d86f332-36aa-474f-98e7-edd10c4f0804", "name": "Urban-Equestrian", "category": "shopping", "address": "813 E Anapamu St" }, "geometry": { "type": "Point", "coordinates": [ -119.6954023, 34.4333084 ] } },
{ "type": "Feature", "properties": { "id": "d2e90932-720b-4696-af96-111eee51ddc2", "name": "Riviera Hills Apartments", "category": "landmark_and_historical_building", "address": "813 E Anapamu St" }, "geometry": { "type": "Point", "coordinates": [ -119.6954989, 34.4333058 ] } },
{ "type": "Feature", "properties": { "id": "d58559ec-9176-44e6-8c46-515d42943ffd", "name": "Santa Barbara Bowl", "category": "music_venue", "address": "1122 N Milpas St" }, "geometry": { "type": "Point", "coordinates": [ -119.6935775, 34.4350687 ] } },
{ "type": "Feature", "properties": { "id": "cc2bfd51-4aec-46e4-98cd-08839e569d9b", "name": "SBPlastering", "category": "painting", "address": "708 N Voluntario St" }, "geometry": { "type": "Point", "coordinates": [ -119.687279462814331, 34.431362986122849 ] } },
{ "type": "Feature", "properties": { "id": "33b18f7f-4f07-4f5f-b366-954ac0ca7ae7", "name": "Low Cost Plumbing", "category": "building_supply_store", "address": "615 Chiquita Rd" }, "geometry": { "type": "Point", "coordinates": [ -119.682441066473416, 34.432062047233856 ] } },
{ "type": "Feature", "properties": { "id": "daaaa145-79e7-43fb-9b49-d733b05f63d1", "name": "Edward the Fix It Guy Inc.", "category": "contractor", "address": "610 Alameda Padre Serra" }, "geometry": { "type": "Point", "coordinates": [ -119.6813451, 34.4328508 ] } },
{ "type": "Feature", "properties": { "id": "f5ad040a-3351-45eb-9d7f-1c68d89644d8", "name": "Jane Reaction Fitness", "category": "gym", "address": "410 Alameda Padre Serra" }, "geometry": { "type": "Point", "coordinates": [ -119.67845, 34.43118 ] } },
{ "type": "Feature", "properties": { "id": "11730d85-64e4-42bd-8ba1-d35c47c06a85", "name": "Georgene's 244 Las Alturas", "category": "mexican_restaurant", "address": "244 Las Alturas Rd" }, "geometry": { "type": "Point", "coordinates": [ -119.679155, 34.434293 ] } },
{ "type": "Feature", "properties": { "id": "72fac42b-2a01-4728-a21d-08983300737c", "name": "California State Route 144", "category": "landmark_and_historical_building", "address": null }, "geometry": { "type": "Point", "coordinates": [ -119.676229, 34.436797 ] } },
{ "type": "Feature", "properties": { "id": "a0e36aa9-a3a1-4694-9482-8515cac08adf", "name": "Keystone Recovery Network", "category": "rehabilitation_center", "address": "475 Barker Pass Rd" }, "geometry": { "type": "Point", "coordinates": [ -119.668140761697146, 34.439253345586607 ] } },
{ "type": "Feature", "properties": { "id": "efbf50e1-a597-4a73-b300-2c2043f4dbf0", "name": "Veterans United For Truth", "category": "community_services_non_profits", "address": "46 Nicholas Ln" }, "geometry": { "type": "Point", "coordinates": [ -119.669939, 34.43557 ] } },
{ "type": "Feature", "properties": { "id": "534ff0ea-4237-426e-9ae9-49a7e11193a5", "name": "On Top of Santa Barbara", "category": "mountain", "address": null }, "geometry": { "type": "Point", "coordinates": [ -119.6740529, 34.4322178 ] } },
{ "type": "Feature", "properties": { "id": "e4737163-651d-4ec4-ac89-4a249ec39608", "name": "Virginia Park, Santa Barbara, California", "category": "park", "address": null }, "geometry": { "type": "Point", "coordinates": [ -119.6641634, 34.4325509 ] } },
{ "type": "Feature", "properties": { "id": "026128ed-8253-4f66-b104-7f24d3f60f7a", "name": "Glamour House Intimate Apparel", "category": "lingerie_store", "address": "840 Deerpath Rd" }, "geometry": { "type": "Point", "coordinates": [ -119.6653274, 34.4325191 ] } },
{ "type": "Feature", "properties": { "id": "e2e1705b-d86c-4057-95b7-bc3650dca4d1", "name": "Woodland Park Estates Santa Barbara California", "category": "park", "address": "Woodland Park Estates Santa Barbara California" }, "geometry": { "type": "Point", "coordinates": [ -119.664324, 34.431294 ] } },
{ "type": "Feature", "properties": { "id": "21643076-3c11-4525-9777-7ad90dad14ce", "name": "Cleveland Elementary School", "category": "elementary_school", "address": "123 Alameda Padre Serra" }, "geometry": { "type": "Point", "coordinates": [ -119.6715052, 34.4287599 ] } },
{ "type": "Feature", "properties": { "id": "39115523-d1e9-43a0-9645-0903efe3781e", "name": "Santa Barbara Hot Spots", "category": "hotel", "address": "1410 Clifton St" }, "geometry": { "type": "Point", "coordinates": [ -119.672401, 34.426675 ] } },
{ "type": "Feature", "properties": { "id": "8cd1b77d-3715-44c4-9121-d1f8c9584c95", "name": "Santa Barbara Tours a la Carte", "category": "limo_services", "address": "2 Oak St" }, "geometry": { "type": "Point", "coordinates": [ -119.67405, 34.42635 ] } },
{ "type": "Feature", "properties": { "id": "64ec30d3-3343-4ef6-822c-19bfa3739f28", "name": "Scent From Heaven", "category": "nutritionist", "address": null }, "geometry": { "type": "Point", "coordinates": [ -119.6736393, 34.4264054 ] } },
{ "type": "Feature", "properties": { "id": "c31e9a6e-751c-4633-baae-fe3f6aef0a4f", "name": "Infinity Jars", "category": "retail", "address": "1922 Palma Drive" }, "geometry": { "type": "Point", "coordinates": [ -119.6736393, 34.4264054 ] } },
{ "type": "Feature", "properties": { "id": "1ae0f81e-5d73-48b4-8f19-f7cfbe9ed0cf", "name": "Santa Barbara's Paving Stone People", "category": "artificial_turf", "address": "129 Santa Ynez St" }, "geometry": { "type": "Point", "coordinates": [ -119.6701742, 34.4259661 ] } },
{ "type": "Feature", "properties": { "id": "317c7db3-19a5-46a8-bdb9-6c621139300c", "name": "Willow Street Films", "category": "wedding_planning", "address": "474 Scenic Dr" }, "geometry": { "type": "Point", "coordinates": [ -119.6645882, 34.4252468 ] } },
{ "type": "Feature", "properties": { "id": "a2b2eb91-b777-4cdb-830e-6d399ce64ecf", "name": "Steven Gratigny Electric", "category": "electrician", "address": "66 ocean view Ave" }, "geometry": { "type": "Point", "coordinates": [ -119.666508, 34.425331 ] } },
{ "type": "Feature", "properties": { "id": "0da7674d-d3f5-46e3-be92-7bc9d7ddf775", "name": "TV Santa Barbara", "category": "community_services_non_profits", "address": "329 S Salinas St" }, "geometry": { "type": "Point", "coordinates": [ -119.6685287, 34.4235634 ] } },
{ "type": "Feature", "properties": { "id": "f964a6e3-e350-4425-b33a-2dcebddd47ec", "name": "Camerata Pacifica", "category": "theatre", "address": "333 S Salinas St" }, "geometry": { "type": "Point", "coordinates": [ -119.6685417, 34.4234753 ] } },
{ "type": "Feature", "properties": { "id": "e166c97f-ef1b-4829-b385-807f4667c03d", "name": "American European Bethel Mission", "category": "religious_organization", "address": "335 S Salinas St" }, "geometry": { "type": "Point", "coordinates": [ -119.6683391, 34.4233786 ] } },
{ "type": "Feature", "properties": { "id": "bc238e56-7941-42fa-abe3-d19354b810e6", "name": "Muñoz's Auto Repair", "category": "automotive_repair", "address": "401 Old Coast Hwy" }, "geometry": { "type": "Point", "coordinates": [ -119.6680882, 34.4232536 ] } },
{ "type": "Feature", "properties": { "id": "551edd2a-682e-44df-8b51-500bf2bac437", "name": "Santa Barbara Municipal Tennis Courts", "category": "tennis_court", "address": "1414 Park Pl" }, "geometry": { "type": "Point", "coordinates": [ -119.665351564243537, 34.422223961264834 ] } },
{ "type": "Feature", "properties": { "id": "8d047116-9bc4-4dac-93ea-28ca932d766a", "name": "Municipal Tennis and Pickleball Courts", "category": "tennis_court", "address": "1414 Park Pl" }, "geometry": { "type": "Point", "coordinates": [ -119.6654862, 34.4220333 ] } },
{ "type": "Feature", "properties": { "id": "706c6ea1-b1d7-46d6-a2c4-dcf764e85c5f", "name": "Santa Barbara Zoo", "category": "wildlife_sanctuary", "address": "500 Ninos Dr" }, "geometry": { "type": "Point", "coordinates": [ -119.6670582, 34.4204069 ] } },
{ "type": "Feature", "properties": { "id": "02ebd4fe-507a-4d37-9d30-c6c31e08223b", "name": "Santa Barbara Sunrise RV Park", "category": "rv_park", "address": "516 S Salinas St" }, "geometry": { "type": "Point", "coordinates": [ -119.6666334, 34.4217822 ] } },
{ "type": "Feature", "properties": { "id": "7ef6b25b-a42f-4939-a445-5963b6fa4506", "name": "Dreamscape Santa Barbara", "category": "landscaping", "address": "506 S Salinas St" }, "geometry": { "type": "Point", "coordinates": [ -119.6667484, 34.421958 ] } },
{ "type": "Feature", "properties": { "id": "b9124c63-3ae0-4338-8957-8e5d6be7f770", "name": "Mi Fiesta Market", "category": "liquor_store", "address": "410 S Salinas St" }, "geometry": { "type": "Point", "coordinates": [ -119.668043818142536, 34.422637452972282 ] } },
{ "type": "Feature", "properties": { "id": "d10421a1-d8ef-4430-ac94-353925543e14", "name": "American Silkscreen", "category": "advertising_agency", "address": "402 S Salinas St" }, "geometry": { "type": "Point", "coordinates": [ -119.668119480832033, 34.422802173995564 ] } },
{ "type": "Feature", "properties": { "id": "13d88295-8839-456d-b1cd-4a9862ea8a6f", "name": "Beachside Taxi SB", "category": "taxi_service", "address": "310 S Canada St" }, "geometry": { "type": "Point", "coordinates": [ -119.670425, 34.4225353 ] } },
{ "type": "Feature", "properties": { "id": "89eaca2b-12a9-4c52-b58b-0f0c3aacd570", "name": "Prestige Cleaning", "category": "home_cleaning", "address": "420 S Canada St" }, "geometry": { "type": "Point", "coordinates": [ -119.6688946, 34.4214945 ] } },
{ "type": "Feature", "properties": { "id": "f8287da4-de8e-41a4-b409-c113c8b16e44", "name": "Luis Landscape and Maintenance", "category": "gardener", "address": "1212 Punta Gorda St" }, "geometry": { "type": "Point", "coordinates": [ -119.6692851, 34.4212168 ] } },
{ "type": "Feature", "properties": { "id": "4c8bcaa4-22e8-47a6-bfa4-31bd18f22f36", "name": "Art's Market", "category": "convenience_store", "address": "1104 Cacique St" }, "geometry": { "type": "Point", "coordinates": [ -119.673838, 34.4219308 ] } },
{ "type": "Feature", "properties": { "id": "87da018e-64e3-4575-9335-85bdab02193a", "name": "Flamingo Mobile Home Park", "category": "mobile_home_park", "address": "1210 Cacique St" }, "geometry": { "type": "Point", "coordinates": [ -119.6727494, 34.4228877 ] } },
{ "type": "Feature", "properties": { "id": "81acea44-9bde-4923-a7a3-fb5d3f695f92", "name": "Santa Barbara Housekeeping", "category": "office_cleaning", "address": "112 S Canada St" }, "geometry": { "type": "Point", "coordinates": [ -119.672667503356934, 34.424071354978665 ] } },
{ "type": "Feature", "properties": { "id": "12c8c997-10b5-4bec-a60a-e40b7dec7fb8", "name": "Kennedy's Automotive", "category": "automotive_repair", "address": "205 S Salinas St" }, "geometry": { "type": "Point", "coordinates": [ -119.6704567, 34.4249237 ] } },
{ "type": "Feature", "properties": { "id": "ae3e67fc-0124-4abf-8d07-9ab79dec646b", "name": "Felix Jrs Tires", "category": "tire_dealer_and_repair", "address": "205 S Salinas St" }, "geometry": { "type": "Point", "coordinates": [ -119.6703514, 34.4249438 ] } },
{ "type": "Feature", "properties": { "id": "8ad28f47-168f-46b8-8c6d-b362478e522d", "name": "Fairway Market", "category": "grocery_store", "address": "128 S Salinas St" }, "geometry": { "type": "Point", "coordinates": [ -119.6711393, 34.4250695 ] } },
{ "type": "Feature", "properties": { "id": "c69ff3c6-06d8-4903-844b-2eeb7a2ceaae", "name": "Latino Beauty Salon", "category": "beauty_salon", "address": "130 S Salinas St" }, "geometry": { "type": "Point", "coordinates": [ -119.6710212, 34.425003 ] } },
{ "type": "Feature", "properties": { "id": "bd1ccc31-5c11-4ef9-89f2-f797e501a9ed", "name": "El Sitio", "category": "mexican_restaurant", "address": "138 S Salinas St" }, "geometry": { "type": "Point", "coordinates": [ -119.6710355, 34.4250127 ] } },
{ "type": "Feature", "properties": { "id": "f3e1c65a-af73-46cc-a7e8-644ccacb3590", "name": "Towers Cleaning", "category": "janitorial_services", "address": "112 S Canada St" }, "geometry": { "type": "Point", "coordinates": [ -119.67287, 34.42435 ] } },
{ "type": "Feature", "properties": { "id": "ae31cbf4-c9dd-4391-83e2-bad608d409bb", "name": "TLC Expert Auto Detail", "category": "auto_detailing", "address": "21 S Canada St" }, "geometry": { "type": "Point", "coordinates": [ -119.6735503, 34.4253269 ] } },
{ "type": "Feature", "properties": { "id": "886ffc44-5590-4eee-80c9-5e1e860408ee", "name": "Paul Crow - Motorcycle Sales", "category": "motorcycle_dealer", "address": "16 S Canada St" }, "geometry": { "type": "Point", "coordinates": [ -119.6736884, 34.4253678 ] } },
{ "type": "Feature", "properties": { "id": "1be682ea-0b07-4032-81b8-9c2dcf3168e5", "name": "Letty Mendoza’s House Cleaning Services", "category": "home_improvement_store", "address": "23 N Soledad St" }, "geometry": { "type": "Point", "coordinates": [ -119.67657, 34.42516 ] } },
{ "type": "Feature", "properties": { "id": "f61fa458-29e2-4347-8591-717bb8674692", "name": "Franklin Elementary School", "category": "elementary_school", "address": "1111 E Mason St" }, "geometry": { "type": "Point", "coordinates": [ -119.6781406, 34.4252058 ] } },
{ "type": "Feature", "properties": { "id": "7cdbd98e-185a-4524-87fc-554c5e7eb12a", "name": "Cesar Chavez Elementary School", "category": "elementary_school", "address": "1102 E Yanonali St" }, "geometry": { "type": "Point", "coordinates": [ -119.6791212, 34.4256166 ] } },
{ "type": "Feature", "properties": { "id": "01340890-e797-4ec5-9226-6e12c7873dc7", "name": "Santa Barbara School District", "category": "elementary_school", "address": "1102 E Yanonali St" }, "geometry": { "type": "Point", "coordinates": [ -119.679207900947063, 34.425651827936356 ] } },
{ "type": "Feature", "properties": { "id": "31e4711a-c691-4239-aab0-d96c17065e31", "name": "Adelante Charter School", "category": "education", "address": "1102 E Yanonali St" }, "geometry": { "type": "Point", "coordinates": [ -119.678688713827, 34.424834839714023 ] } },
{ "type": "Feature", "properties": { "id": "a452d00e-9776-448c-b1af-516c068bb452", "name": "The Adelante Charter School", "category": "elementary_school", "address": "1102 E Yanonali St" }, "geometry": { "type": "Point", "coordinates": [ -119.6788054, 34.4245471 ] } },
{ "type": "Feature", "properties": { "id": "8b128627-5203-43f1-b595-cb2c8d557773", "name": "New Beginning Community Church", "category": "pentecostal_church", "address": "601 E Montecito St" }, "geometry": { "type": "Point", "coordinates": [ -119.678108, 34.4243325 ] } },
{ "type": "Feature", "properties": { "id": "e093449b-89ac-4a80-b56c-6ae0df754034", "name": "Second Baptist Church", "category": "church_cathedral", "address": "1032 E Mason St" }, "geometry": { "type": "Point", "coordinates": [ -119.6780527, 34.4243679 ] } },
{ "type": "Feature", "properties": { "id": "67adc239-2d43-41e3-acd3-85fb7b24130a", "name": "Sunflower Park", "category": "park", "address": "1124 E Mason St" }, "geometry": { "type": "Point", "coordinates": [ -119.677283, 34.424967 ] } },
{ "type": "Feature", "properties": { "id": "d7ba7359-eff9-4598-823f-ffb834d65980", "name": "Beth McDonald Consulting", "category": "professional_services", "address": "22 N Voluntario St" }, "geometry": { "type": "Point", "coordinates": [ -119.6773473, 34.4244061 ] } },
{ "type": "Feature", "properties": { "id": "1f7724b0-595a-4088-a2ea-ca777678d08c", "name": "Integral Martial Arts", "category": "sports_and_recreation_venue", "address": "1032 E Mason St" }, "geometry": { "type": "Point", "coordinates": [ -119.677965705121338, 34.424262830874305 ] } },
{ "type": "Feature", "properties": { "id": "9e8c3ebf-eec8-4851-b035-7f5100094014", "name": "House of Judah Santa Barbara", "category": "church_cathedral", "address": "1032 E Mason St" }, "geometry": { "type": "Point", "coordinates": [ -119.67787, 34.42422 ] } },
{ "type": "Feature", "properties": { "id": "f21e04b6-2cb8-4aec-8fb9-3a97a4b2ebb8", "name": "Cornejos and Urrutias Taekwondo", "category": "martial_arts_club", "address": "1032 E Mason St" }, "geometry": { "type": "Point", "coordinates": [ -119.67787, 34.42422 ] } },
{ "type": "Feature", "properties": { "id": "760b69f8-644d-41ad-9a5c-038c1dd704c3", "name": "Santa Barbara Roof Company", "category": "roofing", "address": "21 N Alisos St, Rear" }, "geometry": { "type": "Point", "coordinates": [ -119.678733, 34.423055 ] } },
{ "type": "Feature", "properties": { "id": "5d661daa-a3a5-4f3e-bcd3-6b4809345b2e", "name": "A&M Roofing and Gutters", "category": "roofing", "address": "21 N Alisos St" }, "geometry": { "type": "Point", "coordinates": [ -119.6786221, 34.4231301 ] } },
{ "type": "Feature", "properties": { "id": "2b9832cf-945d-4b28-ae2d-bf2f9aed1eff", "name": "SBWeb - Santa Barbara Web Design", "category": "web_designer", "address": "1015 Quinientos St" }, "geometry": { "type": "Point", "coordinates": [ -119.6773524, 34.4232261 ] } },
{ "type": "Feature", "properties": { "id": "7eb83ca5-6682-4419-a1d2-40360c255076", "name": "AWebsiteForLawyers", "category": "internet_marketing_service", "address": "1015 Quinientos St" }, "geometry": { "type": "Point", "coordinates": [ -119.6773877, 34.4232137 ] } },
{ "type": "Feature", "properties": { "id": "4be03eb0-197d-4a61-b337-3fdbcf83d014", "name": "Data/Tel Connection, Inc.", "category": "telecommunications", "address": "2 S Voluntario St #B" }, "geometry": { "type": "Point", "coordinates": [ -119.6762462, 34.4234919 ] } },
{ "type": "Feature", "properties": { "id": "4f841a6f-2780-4111-acc3-4b81d43192b7", "name": "Schools4Africa.org", "category": "printing_services", "address": "22 S Voluntario St" }, "geometry": { "type": "Point", "coordinates": [ -119.67616, 34.42256 ] } },
{ "type": "Feature", "properties": { "id": "acdc66df-ad26-456d-99dc-bd19654da675", "name": "Restaurant Connection of Santa Barbara, Inc.", "category": "food_delivery_service", "address": "928 Carpinteria St Ste 6" }, "geometry": { "type": "Point", "coordinates": [ -119.676574, 34.421119 ] } },
{ "type": "Feature", "properties": { "id": "7f495222-839c-4b9a-8ba7-4a332786fa38", "name": "Escential Blends", "category": "day_spa", "address": "928 Carpinteria St Ste 2" }, "geometry": { "type": "Point", "coordinates": [ -119.6765728, 34.4211336 ] } },
{ "type": "Feature", "properties": { "id": "d8a1afc5-f0e8-4238-9021-6cfd4f2fa374", "name": "Santa Barbara Trophy & Engraving", "category": "jewelry_store", "address": "920 Carpinteria St" }, "geometry": { "type": "Point", "coordinates": [ -119.676525817926418, 34.421066121370792 ] } },
{ "type": "Feature", "properties": { "id": "94468003-4b70-432b-a54b-c1c8a7b72b6f", "name": "Fundamental Body Therapy", "category": "naturopathic_holistic", "address": "928 Carpinteria St" }, "geometry": { "type": "Point", "coordinates": [ -119.67658, 34.42129 ] } },
{ "type": "Feature", "properties": { "id": "067eab01-d3dd-4bab-bd0a-92dfb9adba6a", "name": "Mechanics Bank - Milpas Branch", "category": "bank_credit_union", "address": "914 Carpinteria St" }, "geometry": { "type": "Point", "coordinates": [ -119.676772, 34.421241 ] } },
{ "type": "Feature", "properties": { "id": "2fd8d78e-67c3-4b8d-934e-c04ab941b747", "name": "BStudios", "category": "professional_services", "address": "930 Carpinteria St" }, "geometry": { "type": "Point", "coordinates": [ -119.6766591, 34.4214256 ] } },
{ "type": "Feature", "properties": { "id": "9051f902-196b-413b-87f1-61a3325bda90", "name": "Outrageous Photo Booths", "category": "party_supply", "address": "930 Carpinteria St" }, "geometry": { "type": "Point", "coordinates": [ -119.6766353, 34.421423 ] } },
{ "type": "Feature", "properties": { "id": "320a94f9-0cee-411a-91e9-ac2d0316689a", "name": "Rabobank", "category": "bank_credit_union", "address": "914 Carpinteria St" }, "geometry": { "type": "Point", "coordinates": [ -119.6768819, 34.4213391 ] } },
{ "type": "Feature", "properties": { "id": "909816ec-3f2d-4926-9a83-b3a437edbfa1", "name": "Rite Aid", "category": "pharmacy", "address": "35 S Milpas St" }, "geometry": { "type": "Point", "coordinates": [ -119.6772644, 34.4213182 ] } },
{ "type": "Feature", "properties": { "id": "c61caa8a-0016-4450-9b2e-904b68f7978d", "name": "KeyMe Locksmiths", "category": "key_and_locksmith", "address": "35 S Milpas St" }, "geometry": { "type": "Point", "coordinates": [ -119.677252, 34.4212785 ] } },
{ "type": "Feature", "properties": { "id": "b2da1c64-e185-4ecb-800a-2d139c556956", "name": "Jack's Bistro", "category": "bagel_shop", "address": "53 S Milpas St" }, "geometry": { "type": "Point", "coordinates": [ -119.6772142, 34.4211993 ] } },
{ "type": "Feature", "properties": { "id": "8b72a392-12aa-497d-8813-f09fbd190968", "name": "Western Union", "category": "money_transfer_services", "address": "35 S Milpas St" }, "geometry": { "type": "Point", "coordinates": [ -119.677394, 34.421499 ] } },
{ "type": "Feature", "properties": { "id": "8cdd77d9-0b97-4247-9bb6-3bd444cf0926", "name": "Little Caesars Pizza", "category": "pizza_restaurant", "address": "21 N Milpas St" }, "geometry": { "type": "Point", "coordinates": [ -119.6780888, 34.42146 ] } },
{ "type": "Feature", "properties": { "id": "9a0aa5c1-421a-4fcf-808c-b3fab1db1721", "name": "LibertyX Bitcoin ATM", "category": "atms", "address": "35 S Milpas St" }, "geometry": { "type": "Point", "coordinates": [ -119.6776223, 34.4209829 ] } },
{ "type": "Feature", "properties": { "id": "b446c1a8-7ee8-48f2-a642-726e8a9de756", "name": "Wells Fargo ATM", "category": "bank_credit_union", "address": "35 S Milpas St" }, "geometry": { "type": "Point", "coordinates": [ -119.677602052688599, 34.420986115857787 ] } },
{ "type": "Feature", "properties": { "id": "076c41ac-9f2e-4dc2-97ab-bf496c8b801a", "name": "Balance in Motion", "category": "massage", "address": "928 Carpinteria St" }, "geometry": { "type": "Point", "coordinates": [ -119.6769068, 34.4211173 ] } },
{ "type": "Feature", "properties": { "id": "662cd5b0-9bcf-4777-9853-fee76c99ad6a", "name": "BarrierEnergy", "category": "home_inspector", "address": "928 Carpinteria St" }, "geometry": { "type": "Point", "coordinates": [ -119.6769023, 34.4210922 ] } },
{ "type": "Feature", "properties": { "id": "c88be558-4e9f-4c11-9e6a-3844bd8f5c0c", "name": "Sanguis Winery", "category": "winery", "address": "8 Ashley Ave" }, "geometry": { "type": "Point", "coordinates": [ -119.679333412453786, 34.420666505157776 ] } },
{ "type": "Feature", "properties": { "id": "a73f3e93-7cef-408b-8687-972c5ed23353", "name": "Castaneda Pro Tint", "category": "car_window_tinting", "address": "12 Ashley Ave" }, "geometry": { "type": "Point", "coordinates": [ -119.6792126, 34.4207426 ] } },
{ "type": "Feature", "properties": { "id": "7a75cbbb-7c2e-4f8b-aaaa-3befa1dcbc14", "name": "Young Construction", "category": "roofing", "address": "9 Ashley Ave" }, "geometry": { "type": "Point", "coordinates": [ -119.679113, 34.420839 ] } },
{ "type": "Feature", "properties": { "id": "77eee7d7-de22-4ad2-96fd-0845870c0a11", "name": "The Sanguis Collection", "category": "winery", "address": "8 Ashley Ave" }, "geometry": { "type": "Point", "coordinates": [ -119.6792731, 34.4208376 ] } },
{ "type": "Feature", "properties": { "id": "f9a7fa4e-f28b-4b31-bd45-cfdb83b3802a", "name": "Stone And Masonry", "category": "masonry_concrete", "address": "816 Quinientos St" }, "geometry": { "type": "Point", "coordinates": [ -119.679465, 34.4209168 ] } },
{ "type": "Feature", "properties": { "id": "0522fae9-8d84-4c28-8edb-941ccd8ecd6b", "name": "All Coast Truck and Tractor Services", "category": "automotive_repair", "address": "821 Quinientos St" }, "geometry": { "type": "Point", "coordinates": [ -119.6794589, 34.4211807 ] } },
{ "type": "Feature", "properties": { "id": "37d02528-aef1-4a5d-9ef1-eb6956aef238", "name": "Jeff Peppard Inc", "category": "dentist", "address": "7 Ashley Ave" }, "geometry": { "type": "Point", "coordinates": [ -119.6793089, 34.4211437 ] } },
{ "type": "Feature", "properties": { "id": "3ee7a97e-d203-40d4-83da-a8065f6425a7", "name": "Lumber Liquidators Flooring", "category": "flooring_store", "address": "18 S Milpas St" }, "geometry": { "type": "Point", "coordinates": [ -119.6784992, 34.4209965 ] } },
{ "type": "Feature", "properties": { "id": "f52591da-f556-4d94-b1fc-6f39ea0a7206", "name": "Aqua-Flo Supply", "category": "landscaping", "address": "18 S Milpas St" }, "geometry": { "type": "Point", "coordinates": [ -119.678459, 34.4211278 ] } },
{ "type": "Feature", "properties": { "id": "d8994395-4b5d-461d-8d86-b4eddebf11d5", "name": "Petco", "category": "pet_training", "address": "19 S Milpas St" }, "geometry": { "type": "Point", "coordinates": [ -119.678377, 34.4212271 ] } },
{ "type": "Feature", "properties": { "id": "f6febb42-a427-46aa-a835-7bc8be0020aa", "name": "Carl's Jr.", "category": "fast_food_restaurant", "address": "7 S Milpas St" }, "geometry": { "type": "Point", "coordinates": [ -119.6784886, 34.4215374 ] } },
{ "type": "Feature", "properties": { "id": "f2f7e99e-72fc-4401-8fb9-963b9d2932d4", "name": "Summit Gasoline", "category": "gas_station", "address": "8 S Milpas St" }, "geometry": { "type": "Point", "coordinates": [ -119.6789994, 34.4213322 ] } },
{ "type": "Feature", "properties": { "id": "8a831631-1963-4756-a7b4-c2054389bf20", "name": "Santa Barbara Monumental Co", "category": "funeral_services_and_cemeteries", "address": "3 N Milpas St" }, "geometry": { "type": "Point", "coordinates": [ -119.6791498, 34.4216966 ] } },
{ "type": "Feature", "properties": { "id": "ce2d2362-ee5b-4794-af60-456c97ed8973", "name": "Sherwin-Williams Paint Store", "category": "paint_store", "address": "21 N Milpas St" }, "geometry": { "type": "Point", "coordinates": [ -119.679164, 34.421797 ] } },
{ "type": "Feature", "properties": { "id": "99f255f7-4427-444f-b558-a3585a135f80", "name": "A-OK Power Equipment", "category": "hardware_store", "address": "14 N Milpas St" }, "geometry": { "type": "Point", "coordinates": [ -119.679346, 34.4220771 ] } },
{ "type": "Feature", "properties": { "id": "9d32e78a-3a0f-4be3-aecb-21a924ed691d", "name": "Milpas Rental", "category": "car_rental_agency", "address": "6 N Milpas St" }, "geometry": { "type": "Point", "coordinates": [ -119.6790434, 34.4219234 ] } },
{ "type": "Feature", "properties": { "id": "e3cd57a6-e6b6-4911-aa40-44123213517b", "name": "Sofi Hot Dogs Food Truck Stand", "category": "fast_food_restaurant", "address": "2 N Milpas St" }, "geometry": { "type": "Point", "coordinates": [ -119.6787873, 34.4219014 ] } },
{ "type": "Feature", "properties": { "id": "8b013ae3-37f4-4e0c-bd9f-7e12d3bc89db", "name": "Crown Liquors", "category": "liquor_store", "address": "2 N Milpas St" }, "geometry": { "type": "Point", "coordinates": [ -119.6788516, 34.4218484 ] } },
{ "type": "Feature", "properties": { "id": "c4c152b8-b7b2-4bcb-ba03-eba2e81b8337", "name": "Dr. Kathryn Waters", "category": "optometrist", "address": "1 S Milpas St" }, "geometry": { "type": "Point", "coordinates": [ -119.678641, 34.4217519 ] } },
{ "type": "Feature", "properties": { "id": "cb509c85-07aa-4df3-9581-183382dfa2f6", "name": "Eyeglass Factory", "category": "eyewear_and_optician", "address": "1 S Milpas St" }, "geometry": { "type": "Point", "coordinates": [ -119.678755, 34.4216674 ] } },
{ "type": "Feature", "properties": { "id": "567619ea-9288-4fbc-8fff-afaa0d23b0cc", "name": "Jams", "category": "music_venue", "address": "631 1/2 N Milpas St" }, "geometry": { "type": "Point", "coordinates": [ -119.678518134565465, 34.421646470153199 ] } },
{ "type": "Feature", "properties": { "id": "b2e25e04-67ce-4126-986a-b953f1dd3a04", "name": "Sprouts Farmers Market", "category": "health_food_store", "address": "29 S Milpas St" }, "geometry": { "type": "Point", "coordinates": [ -119.6777001, 34.4216919 ] } },
{ "type": "Feature", "properties": { "id": "9e83d75f-0cb1-4888-8acf-806b4e2b5f58", "name": "Santa Barbara Eyeglass", "category": "shopping", "address": "1 S Milpas St" }, "geometry": { "type": "Point", "coordinates": [ -119.6777375, 34.421654 ] } },
{ "type": "Feature", "properties": { "id": "24cdcf71-5ae2-4f0e-9e2c-65c69bf444b4", "name": "Pat Lopez Art Restoration", "category": "art_restoration", "address": "1 N Alisos St" }, "geometry": { "type": "Point", "coordinates": [ -119.6780343, 34.4227076 ] } },
{ "type": "Feature", "properties": { "id": "2ea12776-6a4b-4025-9fe0-067cdbb4645f", "name": "Pro Garden Supply", "category": "nursery_and_gardening", "address": "18 N Milpas St" }, "geometry": { "type": "Point", "coordinates": [ -119.6793545, 34.4222418 ] } },
{ "type": "Feature", "properties": { "id": "b89a734c-e1ae-4976-aaef-4c275225fb0d", "name": "Oksana's Facials", "category": "beauty_salon", "address": "22 N Milpas St" }, "geometry": { "type": "Point", "coordinates": [ -119.6795654, 34.4222954 ] } },
{ "type": "Feature", "properties": { "id": "946033b4-71af-4e88-9924-99969e1e3923", "name": "Eller's Donut House", "category": "donuts", "address": "22 N Milpas St" }, "geometry": { "type": "Point", "coordinates": [ -119.6795297, 34.4223339 ] } },
{ "type": "Feature", "properties": { "id": "bd060473-8585-4292-b944-3486e18c2c4e", "name": "RadRevenue", "category": "diagnostic_services", "address": "22 N Milpas St" }, "geometry": { "type": "Point", "coordinates": [ -119.679442, 34.4223912 ] } },
{ "type": "Feature", "properties": { "id": "14545bb3-8eef-4186-bb46-f09fdbc32018", "name": "Sage Center for Health", "category": "acupuncture", "address": "22 N Milpas St" }, "geometry": { "type": "Point", "coordinates": [ -119.67939, 34.422481 ] } },
{ "type": "Feature", "properties": { "id": "96ede956-9437-43ec-89a3-5ccca2080f62", "name": "Continental Credit Control", "category": "collection_agencies", "address": "22 N Milpas St" }, "geometry": { "type": "Point", "coordinates": [ -119.679404, 34.4224735 ] } },
{ "type": "Feature", "properties": { "id": "c2e6f5d2-12e9-48d0-960d-40f7b62276d7", "name": "Santa Barbara Health and Healing", "category": "acupuncture", "address": "22 N Milpas St Ste D" }, "geometry": { "type": "Point", "coordinates": [ -119.6794146, 34.4224452 ] } },
{ "type": "Feature", "properties": { "id": "abe27f70-51c5-41a1-9b2d-b26f47e2b3f1", "name": "Your Place Thai Restaurant", "category": "asian_fusion_restaurant", "address": "22 N Milpas St" }, "geometry": { "type": "Point", "coordinates": [ -119.679409, 34.422426 ] } },
{ "type": "Feature", "properties": { "id": "6bc74c36-9f84-41c7-a2f0-37e5bb422ed9", "name": "Your Place Restaurant", "category": "thai_restaurant", "address": "22 N Milpas St" }, "geometry": { "type": "Point", "coordinates": [ -119.6795779, 34.4222791 ] } },
{ "type": "Feature", "properties": { "id": "4a84b030-63c4-401c-9733-b731f811c7af", "name": "McDonald's", "category": "fast_food_restaurant", "address": "29 N Milpas St" }, "geometry": { "type": "Point", "coordinates": [ -119.6800867, 34.4223061 ] } },
{ "type": "Feature", "properties": { "id": "0fe6dfd5-2501-4195-8e7e-d948b65db4f2", "name": "Wells Fargo Bank", "category": "bank_credit_union", "address": "101 N Milpas St" }, "geometry": { "type": "Point", "coordinates": [ -119.680488109588623, 34.422507245046639 ] } },
{ "type": "Feature", "properties": { "id": "dbba3f17-1dd2-4dbc-b7d4-9fa79d5b5adf", "name": "IHSP Santa Barbara", "category": "hostel", "address": "111 N Milpas St" }, "geometry": { "type": "Point", "coordinates": [ -119.681023302772161, 34.422842194801127 ] } },
{ "type": "Feature", "properties": { "id": "508574f6-5a2c-47e9-85d7-2a996048a946", "name": "ClimbTime Yoga", "category": "yoga_studio", "address": "121 N Milpas St" }, "geometry": { "type": "Point", "coordinates": [ -119.681303, 34.422762 ] } },
{ "type": "Feature", "properties": { "id": "36190ab1-8ff1-4fee-94b9-959c63b3bd22", "name": "Kami's Joint", "category": "restaurant", "address": "820 E Yanonali St" }, "geometry": { "type": "Point", "coordinates": [ -119.68167, 34.42268 ] } },
{ "type": "Feature", "properties": { "id": "663c2582-0220-497d-a882-da7457f6ca73", "name": "805 Roadside Assistance & Towing", "category": "towing_service", "address": "823 E Mason St" }, "geometry": { "type": "Point", "coordinates": [ -119.68098449707, 34.422367095947301 ] } },
{ "type": "Feature", "properties": { "id": "577e8344-1fc3-435e-b9ab-acc48dc47bc2", "name": "Milpas Chiropractic", "category": "chiropractor", "address": "811 E Mason St" }, "geometry": { "type": "Point", "coordinates": [ -119.68103, 34.4220235 ] } },
{ "type": "Feature", "properties": { "id": "fb1ffd40-2909-4b5a-ab0d-1a96750f75ee", "name": "Pride Barco Lock Co.", "category": "retail", "address": "116 N Nopal St Ste 4" }, "geometry": { "type": "Point", "coordinates": [ -119.68142671047444, 34.422217825694396 ] } },
{ "type": "Feature", "properties": { "id": "c8638683-d8a4-4c08-ab1b-3e2274851bcb", "name": "Quarry Resources", "category": "stone_supplier", "address": "129 N Nopal St" }, "geometry": { "type": "Point", "coordinates": [ -119.6821364, 34.4220764 ] } },
{ "type": "Feature", "properties": { "id": "eb105a2e-b098-4436-ba58-ac11b8cc8575", "name": "Schmidt & Schmidt Construction", "category": "contractor", "address": "103 N Nopal St" }, "geometry": { "type": "Point", "coordinates": [ -119.6815363, 34.4215431 ] } },
{ "type": "Feature", "properties": { "id": "f7c81d24-3edb-49a7-b2dd-8260aed0dd9b", "name": "BMA Mechanical +", "category": "engine_repair_service", "address": "820 E Mason St Ste B" }, "geometry": { "type": "Point", "coordinates": [ -119.68044, 34.42186 ] } },
{ "type": "Feature", "properties": { "id": "8bad7a25-a611-495c-8f73-2ef629cf53e1", "name": "Smardan-Hatcher Company", "category": "hardware_store", "address": "810 E Mason St" }, "geometry": { "type": "Point", "coordinates": [ -119.6809204, 34.4217877 ] } },
{ "type": "Feature", "properties": { "id": "ea4a1674-bb28-4422-9f5e-79f1bb28afdb", "name": "MN Studio", "category": "interior_design", "address": "820 E Mason St" }, "geometry": { "type": "Point", "coordinates": [ -119.6805684, 34.4219819 ] } },
{ "type": "Feature", "properties": { "id": "f5e96de7-3888-45df-af1e-061722decfb0", "name": "Venture Visuals", "category": "event_photography", "address": "820 E Mason St" }, "geometry": { "type": "Point", "coordinates": [ -119.6805464, 34.4219455 ] } },
{ "type": "Feature", "properties": { "id": "3f8ca39c-50a6-4e3d-9b95-3a5cfaad6a04", "name": "Channel Islands Chiropractic", "category": "chiropractor", "address": "22 N Milpas St" }, "geometry": { "type": "Point", "coordinates": [ -119.680421, 34.4218939 ] } },
{ "type": "Feature", "properties": { "id": "8054221b-eec3-43ae-8e5e-7d225e522e28", "name": "Main International Milpas", "category": "financial_service", "address": "21 N Milpas St" }, "geometry": { "type": "Point", "coordinates": [ -119.68, 34.42193 ] } },
{ "type": "Feature", "properties": { "id": "6726254c-de50-4f3c-952a-1196db69dfc2", "name": "La Michoacana Premier", "category": "ice_cream_shop", "address": "21 N Milpas St" }, "geometry": { "type": "Point", "coordinates": [ -119.68003, 34.4219256 ] } },
{ "type": "Feature", "properties": { "id": "d1a869a2-00b4-4567-951a-6cad1ec0425f", "name": "Sherwin-Williams", "category": "hardware_store", "address": "21 N Milpas St" }, "geometry": { "type": "Point", "coordinates": [ -119.6799587, 34.4220246 ] } },
{ "type": "Feature", "properties": { "id": "d7db4995-4009-4c81-8e90-1684ee176ee1", "name": "H&R Block", "category": "trusts", "address": "21 N Milpas St" }, "geometry": { "type": "Point", "coordinates": [ -119.6798032, 34.4221359 ] } },
{ "type": "Feature", "properties": { "id": "3b0b99f4-840f-4004-ae5b-9b6749450cb2", "name": "CNJ Nails & Spa", "category": "nail_salon", "address": "21 N Milpas St" }, "geometry": { "type": "Point", "coordinates": [ -119.679905, 34.4220229 ] } },
{ "type": "Feature", "properties": { "id": "0751a376-52f7-4f7a-a69d-b0c64d653525", "name": "Little Caesars", "category": "fast_food_restaurant", "address": "21 N Milpas St" }, "geometry": { "type": "Point", "coordinates": [ -119.679684, 34.421832 ] } },
{ "type": "Feature", "properties": { "id": "a1bcee74-0805-4593-909c-148a0803118d", "name": "Santa Barbara Stone & Masonary", "category": "building_supply_store", "address": "27 N Nopal St" }, "geometry": { "type": "Point", "coordinates": [ -119.6809361, 34.4211985 ] } },
{ "type": "Feature", "properties": { "id": "fd9600ea-0629-414a-a551-69246d2c8013", "name": "Architectural Millwork", "category": "countertop_installation", "address": "8 N Nopal St" }, "geometry": { "type": "Point", "coordinates": [ -119.6801839, 34.4208174 ] } },
{ "type": "Feature", "properties": { "id": "acd07c9a-1482-47e7-b952-56198911dc48", "name": "Tileco Distributors", "category": "building_supply_store", "address": "7 N Nopal St" }, "geometry": { "type": "Point", "coordinates": [ -119.68052915329028, 34.420577282158121 ] } },
{ "type": "Feature", "properties": { "id": "3c37bbd6-437b-4425-a268-a1f6885eb5c2", "name": "Goleta Radiator and Auto Repair", "category": "automotive_repair", "address": "705 Lawrence Ave" }, "geometry": { "type": "Point", "coordinates": [ -119.6818716, 34.4202509 ] } },
{ "type": "Feature", "properties": { "id": "6ae1b00b-ee0f-4e81-8d4c-7f0a421b6819", "name": "Santa Barbara Art Glass", "category": "arts_and_entertainment", "address": "706 E Mason St" }, "geometry": { "type": "Point", "coordinates": [ -119.682077934307287, 34.420505278341956 ] } },
{ "type": "Feature", "properties": { "id": "05f0ed2d-dbb0-4f69-922a-99367af45318", "name": "Jensen Global Inc", "category": "wholesale_store", "address": "712 E Mason St" }, "geometry": { "type": "Point", "coordinates": [ -119.6820111, 34.4207504 ] } },
{ "type": "Feature", "properties": { "id": "3276882f-f9bc-4627-9ad3-d22be1d18228", "name": "Safeguard Roofing", "category": "roofing", "address": "725 E Mason St" }, "geometry": { "type": "Point", "coordinates": [ -119.6817316, 34.42115 ] } },
{ "type": "Feature", "properties": { "id": "796ac007-957c-4e0d-b5bc-ac2765b8397d", "name": "Resqme", "category": "business_manufacturing_and_supply", "address": "718 E Mason St" }, "geometry": { "type": "Point", "coordinates": [ -119.6817539, 34.4209407 ] } },
{ "type": "Feature", "properties": { "id": "b24cfdf6-28e7-4d6a-acf2-212d1dbd37ac", "name": "Powertrends Electrical Services", "category": "electrician", "address": "723 E Mason St" }, "geometry": { "type": "Point", "coordinates": [ -119.6818572, 34.4209525 ] } },
{ "type": "Feature", "properties": { "id": "04b9b90c-a69e-40ee-9863-31fa95860f9a", "name": "Santa Barbara Stoneworks", "category": "contractor", "address": "31 N Nopal St" }, "geometry": { "type": "Point", "coordinates": [ -119.6813883, 34.4212266 ] } },
{ "type": "Feature", "properties": { "id": "291feb82-cdc0-49c3-b1b2-c74a425c4da8", "name": "Hummingbird Wine Tours", "category": "wine_tours", "address": "103 N Nopal St" }, "geometry": { "type": "Point", "coordinates": [ -119.681594848632812, 34.42144775390625 ] } },
{ "type": "Feature", "properties": { "id": "71d36acb-5743-4fc1-ba06-4b90c6a4d453", "name": "Manifest Building", "category": "contractor", "address": "103 N Nopal St" }, "geometry": { "type": "Point", "coordinates": [ -119.681538, 34.4215331 ] } },
{ "type": "Feature", "properties": { "id": "04417040-6a5d-426c-9a1e-e728d46f2b0c", "name": "EcoLawn SB", "category": "gardener", "address": "103 N Nopal St" }, "geometry": { "type": "Point", "coordinates": [ -119.681685091899965, 34.42146561596951 ] } },
{ "type": "Feature", "properties": { "id": "63da88b6-daf0-46aa-8c44-bb5f6de46661", "name": "Ally Detail", "category": "auto_detailing", "address": "722 Union St" }, "geometry": { "type": "Point", "coordinates": [ -119.6822182, 34.4213033 ] } },
{ "type": "Feature", "properties": { "id": "d3deb58d-1c00-478e-aa62-ef60d7a6bf6c", "name": "Pacific Pickle Works", "category": "b2b_food_products", "address": "718 Union Ave., Santa Barbara, CA 93103" }, "geometry": { "type": "Point", "coordinates": [ -119.682396, 34.421217 ] } },
{ "type": "Feature", "properties": { "id": "90207be4-ba3c-4d7d-a4f1-5d41c52d41be", "name": "Pacific Pickle Works", "category": "grocery_store", "address": "718 Union St" }, "geometry": { "type": "Point", "coordinates": [ -119.6824941, 34.4212928 ] } },
{ "type": "Feature", "properties": { "id": "1d1c1f86-3e96-4560-9e02-9099cd2ca265", "name": "Pacific Green Construction Landscape", "category": "landscaping", "address": "706 Union St" }, "geometry": { "type": "Point", "coordinates": [ -119.682521, 34.421158 ] } },
{ "type": "Feature", "properties": { "id": "1fd9496c-c79b-4180-a8e7-6d51335d4d44", "name": "Mission Roofing", "category": "roofing", "address": "130 N Calle Cesar Chavez" }, "geometry": { "type": "Point", "coordinates": [ -119.6833157, 34.4203213 ] } },
{ "type": "Feature", "properties": { "id": "1881e2dd-9f65-452d-9ee8-e3248f21397c", "name": "MarBorg Industries", "category": "garbage_collection_service", "address": "119 N Quarantina St" }, "geometry": { "type": "Point", "coordinates": [ -119.68352, 34.42067 ] } },
{ "type": "Feature", "properties": { "id": "92c60412-037f-480c-8513-5ec36ed37f55", "name": "Mattole Valley Naturals", "category": "business_to_business", "address": "130 N Calle Cesar Chavez # 25" }, "geometry": { "type": "Point", "coordinates": [ -119.6843708, 34.4205427 ] } },
{ "type": "Feature", "properties": { "id": "38fbef35-ff4d-421b-9da3-6da5357a1ff7", "name": "Mike's Garage", "category": "automotive_repair", "address": "130 N Calle Cesar Chavez" }, "geometry": { "type": "Point", "coordinates": [ -119.684506, 34.4204989 ] } },
{ "type": "Feature", "properties": { "id": "e6ff12ee-5b43-4ffb-afad-a0fa0a058daf", "name": "Steve Stockmal Music", "category": "music_school", "address": "130 N Calle Cesar Chavez" }, "geometry": { "type": "Point", "coordinates": [ -119.6845202, 34.4203755 ] } },
{ "type": "Feature", "properties": { "id": "cfb711fe-dc06-4092-ad74-8e5f4678b35e", "name": "Insulate SB", "category": "contractor", "address": "130 N Calle Cesar Chavez" }, "geometry": { "type": "Point", "coordinates": [ -119.684496, 34.420275 ] } },
{ "type": "Feature", "properties": { "id": "b1ee717b-a001-49b6-90c9-e6b7f1aa42fb", "name": "Taylor Electric", "category": "contractor", "address": "130 N Calle Cesar Chavez" }, "geometry": { "type": "Point", "coordinates": [ -119.684534, 34.4202365 ] } },
{ "type": "Feature", "properties": { "id": "8fb13a88-829f-4c69-81b5-30132a8f2ca5", "name": "Live Oak Construction and Development", "category": "construction_services", "address": "130 N Calle Cesar Chavez" }, "geometry": { "type": "Point", "coordinates": [ -119.6845685, 34.4202504 ] } },
{ "type": "Feature", "properties": { "id": "73c1795f-05dd-48ec-9708-ffac1973c4e3", "name": "Mattole Valley Naturals", "category": "health_food_store", "address": "130 N Calle Cesar Chavez" }, "geometry": { "type": "Point", "coordinates": [ -119.6845687, 34.4202573 ] } },
{ "type": "Feature", "properties": { "id": "7e261d6f-b4d6-49d5-88a6-83bb08abfd9c", "name": "101 Deli", "category": "delicatessen", "address": "130 N Calle Cesar Chavez" }, "geometry": { "type": "Point", "coordinates": [ -119.6846164, 34.4203067 ] } },
{ "type": "Feature", "properties": { "id": "a992e8a7-0a2e-4159-8f14-102886cafd7c", "name": "Sun Energy MSS", "category": "energy_equipment_and_solution", "address": "9 N Calle Cesar Chavez" }, "geometry": { "type": "Point", "coordinates": [ -119.6847994, 34.4203513 ] } },
{ "type": "Feature", "properties": { "id": "ea4d9773-d0ed-41ec-9781-5a8a65fd85c7", "name": "Bedrock Building Supplies", "category": "building_supply_store", "address": "208 N Calle Cesar Chavez" }, "geometry": { "type": "Point", "coordinates": [ -119.6850548, 34.4205576 ] } },
{ "type": "Feature", "properties": { "id": "eea5135f-0ca7-4c6f-922e-5a0739290f39", "name": "SoCalGas", "category": "gas_station", "address": "219 N Quarantina St" }, "geometry": { "type": "Point", "coordinates": [ -119.684293023460043, 34.421445266160177 ] } },
{ "type": "Feature", "properties": { "id": "c38ce8e6-3b60-4345-87ac-7bc381100cdb", "name": "MarBorg Industries", "category": "garbage_collection_service", "address": "728 E Yanonali St" }, "geometry": { "type": "Point", "coordinates": [ -119.6828278, 34.4220285 ] } },
{ "type": "Feature", "properties": { "id": "f8d7402b-c4cc-4fc0-8fbe-a82eb94f7bcf", "name": "Augustine Painting", "category": "contractor", "address": "125 N Nopal St" }, "geometry": { "type": "Point", "coordinates": [ -119.6824179, 34.4219607 ] } },
{ "type": "Feature", "properties": { "id": "34bdda5f-ed3c-4521-904d-2661afe91365", "name": "Pyramid Marble Tile Mason", "category": "contractor", "address": "208 N Nopal St" }, "geometry": { "type": "Point", "coordinates": [ -119.682791, 34.4226895 ] } },
{ "type": "Feature", "properties": { "id": "635a77e6-fdf3-41c0-92e7-05297cbee28a", "name": "Pyramid Tile and Marble Co.", "category": "home_service", "address": "208 N Nopal St" }, "geometry": { "type": "Point", "coordinates": [ -119.682784366791154, 34.422793950137041 ] } },
{ "type": "Feature", "properties": { "id": "538d0813-476d-432d-9320-9e37d2169088", "name": "Our Lady of Guadalupe", "category": "catholic_church", "address": "227 N Nopal St" }, "geometry": { "type": "Point", "coordinates": [ -119.6834363, 34.4228678 ] } },
{ "type": "Feature", "properties": { "id": "6d503958-b4ef-49b4-8efa-4e5b9103420c", "name": "Mission Linen Supply", "category": "business_management_services", "address": "702 E Montecito St" }, "geometry": { "type": "Point", "coordinates": [ -119.684658, 34.422342 ] } },
{ "type": "Feature", "properties": { "id": "790554eb-fd7d-40af-8370-83f5b76b7036", "name": "Mission Linen and Uniform Service", "category": "linen", "address": "712 E Montecito St" }, "geometry": { "type": "Point", "coordinates": [ -119.6845474, 34.4227793 ] } },
{ "type": "Feature", "properties": { "id": "1cfd5aea-6685-4fcd-aee9-9c1515e4712c", "name": "Muzicraft Sound Engineering", "category": "engineering_services", "address": "735 E Montecito St" }, "geometry": { "type": "Point", "coordinates": [ -119.6841343, 34.4233592 ] } },
{ "type": "Feature", "properties": { "id": "6791696a-e685-40dd-93d7-cdc51946f284", "name": "SB Smokehouse", "category": "barbecue_restaurant", "address": "312 N Nopal St" }, "geometry": { "type": "Point", "coordinates": [ -119.6843109, 34.4238125 ] } },
{ "type": "Feature", "properties": { "id": "5e44bd1f-e400-4baf-9fe6-0e2ffdba3fd4", "name": "Camp Canine", "category": "pet_sitting", "address": "803 E Montecito St" }, "geometry": { "type": "Point", "coordinates": [ -119.6837387, 34.4237299 ] } },
{ "type": "Feature", "properties": { "id": "b3db808d-407a-4d55-9168-eed1933fcd98", "name": "Rincon Technology", "category": "information_technology_company", "address": "810 E Montecito St" }, "geometry": { "type": "Point", "coordinates": [ -119.6834387, 34.4236619 ] } },
{ "type": "Feature", "properties": { "id": "dc3a30e1-f51f-4bf6-b9a9-d45663663159", "name": "Benton Signs & Designs", "category": "sign_making", "address": "816 E Montecito St" }, "geometry": { "type": "Point", "coordinates": [ -119.6833329, 34.423767 ] } },
{ "type": "Feature", "properties": { "id": "fb0b7512-0617-4c0e-8fac-3e1d78d024f1", "name": "CoffeeShop Dogs", "category": "dog_trainer", "address": "805 E Montecito St" }, "geometry": { "type": "Point", "coordinates": [ -119.683618, 34.4238234 ] } },
{ "type": "Feature", "properties": { "id": "28f94510-2fe7-441c-b395-de5b01bad5d7", "name": "Jaffurs Wine Cellars", "category": "winery", "address": "819 E Montecito St" }, "geometry": { "type": "Point", "coordinates": [ -119.6836191, 34.4241647 ] } },
{ "type": "Feature", "properties": { "id": "638ecb1c-420a-4fe8-a8e7-943abe2c56b1", "name": "Rosales Mexican Restaurant", "category": "texmex_restaurant", "address": "827 E Montecito St" }, "geometry": { "type": "Point", "coordinates": [ -119.6831983, 34.4242579 ] } },
{ "type": "Feature", "properties": { "id": "dcbe3c7f-119b-40cd-85b9-f66721675d59", "name": "Fernando's Churros and Deli", "category": "bakery", "address": "827 E Montecito St" }, "geometry": { "type": "Point", "coordinates": [ -119.6831984, 34.4242409 ] } },
{ "type": "Feature", "properties": { "id": "ff257b3f-bba7-4449-bb0e-8e70fa4692bd", "name": "ARCO", "category": "gas_station", "address": "231 N Milpas St" }, "geometry": { "type": "Point", "coordinates": [ -119.682875, 34.424091 ] } },
{ "type": "Feature", "properties": { "id": "843c318d-8511-4661-883b-ad0af3f8c22f", "name": "Blue Rhino Propane Exchange", "category": "propane_supplier", "address": "231 N Milpas St" }, "geometry": { "type": "Point", "coordinates": [ -119.6827471, 34.424208 ] } },
{ "type": "Feature", "properties": { "id": "fd244b8e-5e8d-4151-bb41-9a0e3676d59b", "name": "Speedway Express", "category": "gas_station", "address": "231 N Milpas St" }, "geometry": { "type": "Point", "coordinates": [ -119.682757251819012, 34.42417465074481 ] } },
{ "type": "Feature", "properties": { "id": "96b91e64-3e01-4663-8d1d-39f6c530745f", "name": "LibertyX Bitcoin ATM", "category": "atms", "address": "231 N Milpas St" }, "geometry": { "type": "Point", "coordinates": [ -119.6825265, 34.4242363 ] } },
{ "type": "Feature", "properties": { "id": "d1503b4f-0499-42dd-b142-41b98900ab25", "name": "Below Magid Construction", "category": "contractor", "address": "823 Jennings Ave" }, "geometry": { "type": "Point", "coordinates": [ -119.6827403599804, 34.423637119807054 ] } },
{ "type": "Feature", "properties": { "id": "e154ddb4-9e2c-4432-b03a-32dcbb7e7bd0", "name": "Guadalupe Church", "category": "church_cathedral", "address": "802 E Montecito St" }, "geometry": { "type": "Point", "coordinates": [ -119.683534, 34.423387 ] } },
{ "type": "Feature", "properties": { "id": "ad0d54c0-69af-4e84-9d3f-7f709d354814", "name": "Classic Design", "category": "automotive_repair", "address": "129 N Milpas St" }, "geometry": { "type": "Point", "coordinates": [ -119.6816824, 34.4230773 ] } },
{ "type": "Feature", "properties": { "id": "676d87f0-67d8-48d9-9650-a2b327b10170", "name": "Dioji K-9 Resort & Athletic Club", "category": "pet_sitting", "address": "822 E Yanonali St" }, "geometry": { "type": "Point", "coordinates": [ -119.6818944, 34.423009 ] } },
{ "type": "Feature", "properties": { "id": "c13a673a-a7f7-4dfe-b29f-1e0fa63600be", "name": "Allen Construction", "category": "contractor", "address": "201 N Milpas St" }, "geometry": { "type": "Point", "coordinates": [ -119.6818727, 34.4235009 ] } },
{ "type": "Feature", "properties": { "id": "dcf1c271-bd04-4798-8381-6f077b975260", "name": "Building Performance Specialists", "category": "solar_installation", "address": "201 N Milpas St" }, "geometry": { "type": "Point", "coordinates": [ -119.681976318359006, 34.4233589172363 ] } },
{ "type": "Feature", "properties": { "id": "22344898-74cd-4b67-bc90-2165691ecc12", "name": "Allen Associates", "category": "solar_installation", "address": "201 N Milpas St" }, "geometry": { "type": "Point", "coordinates": [ -119.681740576660161, 34.423316599064968 ] } },
{ "type": "Feature", "properties": { "id": "ac3337f8-8a87-4ced-98ba-3ea036ae4cdd", "name": "Mark Todd Salon", "category": "beauty_salon", "address": "132 N Milpas St" }, "geometry": { "type": "Point", "coordinates": [ -119.681051, 34.423474 ] } },
{ "type": "Feature", "properties": { "id": "ebc27f2b-6eb8-4b11-b310-19bf707cd9f3", "name": "Aikido of Santa Barbara", "category": "martial_arts_club", "address": "121 N Milpas St" }, "geometry": { "type": "Point", "coordinates": [ -119.6810594, 34.4230998 ] } },
{ "type": "Feature", "properties": { "id": "146a60ad-1167-4f34-a206-a1475cc50285", "name": "Corridan Gallery", "category": "art_gallery", "address": "125 N Milpas St" }, "geometry": { "type": "Point", "coordinates": [ -119.6811628, 34.4231543 ] } },
{ "type": "Feature", "properties": { "id": "e1eb5a24-5a22-4b4b-8019-46eecabbd4e9", "name": "Taqueria El Bajio", "category": "mexican_restaurant", "address": "129 N Milpas St" }, "geometry": { "type": "Point", "coordinates": [ -119.6812718, 34.4232464 ] } },
{ "type": "Feature", "properties": { "id": "be5622b0-7659-4868-905e-ede0a5780a4b", "name": "El Bajio", "category": "mexican_restaurant", "address": "129 N Milpas St" }, "geometry": { "type": "Point", "coordinates": [ -119.6813092, 34.4231653 ] } },
{ "type": "Feature", "properties": { "id": "85144019-a62e-4bad-a7ac-a3aa642eb304", "name": "Secure Pro", "category": "home_security", "address": "119 N Milpas St" }, "geometry": { "type": "Point", "coordinates": [ -119.6808892, 34.4229202 ] } },
{ "type": "Feature", "properties": { "id": "4ead6adf-9fb4-461a-bf39-3a286da9f988", "name": "Observables", "category": "telecommunications_company", "address": "117 N Milpas St" }, "geometry": { "type": "Point", "coordinates": [ -119.6809034, 34.4229429 ] } },
{ "type": "Feature", "properties": { "id": "ef61c208-df91-4277-84a0-4926995073ac", "name": "OSF Medical Group of Ca Inc", "category": "health_and_medical", "address": "119 N Milpas St" }, "geometry": { "type": "Point", "coordinates": [ -119.680867, 34.422958 ] } },
{ "type": "Feature", "properties": { "id": "bcc72ad9-09e1-4b65-b8d9-162bf3e75936", "name": "M J Stereo & Smoke Shop", "category": "electronics", "address": "118 N Milpas St" }, "geometry": { "type": "Point", "coordinates": [ -119.680834, 34.423028 ] } },
{ "type": "Feature", "properties": { "id": "d74c695d-feeb-4648-9bd1-438cac784cdf", "name": "Canopy Club", "category": "cannabis_dispensary", "address": "118 N Milpas St" }, "geometry": { "type": "Point", "coordinates": [ -119.680682905065225, 34.423228116635883 ] } },
{ "type": "Feature", "properties": { "id": "884fdce4-1077-4c6b-8353-862775c37de2", "name": "Winchell's Donut House", "category": "donuts", "address": "202 N Milpas St" }, "geometry": { "type": "Point", "coordinates": [ -119.6814374, 34.4237157 ] } },
{ "type": "Feature", "properties": { "id": "017ee74d-883b-4cb8-8cf2-36c2ddf19f09", "name": "Metro by T-Mobile", "category": "mobile_phone_store", "address": "204 N Milpas St" }, "geometry": { "type": "Point", "coordinates": [ -119.68154671279693, 34.423793563679816 ] } },
{ "type": "Feature", "properties": { "id": "d279e5ae-a4e4-48b9-b48a-ad4696503f53", "name": "Milpas Communications", "category": "electronics", "address": "204 N Milpas St" }, "geometry": { "type": "Point", "coordinates": [ -119.681547, 34.423794 ] } },
{ "type": "Feature", "properties": { "id": "0590a49c-ff84-45be-b845-ae32e57f0de3", "name": "Pipeye Tacos", "category": "restaurant", "address": "217 n Milpas st " }, "geometry": { "type": "Point", "coordinates": [ -119.682098, 34.4238958 ] } },
{ "type": "Feature", "properties": { "id": "2c0e3810-4323-441c-8df5-49fb0062024d", "name": "Tacos Pipeye", "category": "taco_restaurant", "address": "217 N Milpas St" }, "geometry": { "type": "Point", "coordinates": [ -119.6821985, 34.4239109 ] } },
{ "type": "Feature", "properties": { "id": "5b5aef56-aaa9-4605-b077-289ab9fc76ed", "name": "Ashley's Dollar", "category": "discount_store", "address": "216 N Milpas St" }, "geometry": { "type": "Point", "coordinates": [ -119.6818295, 34.4239412 ] } },
{ "type": "Feature", "properties": { "id": "c228a94c-4ece-455e-bffc-b2189eb2c555", "name": "Ashleys Dollar Store", "category": "flea_market", "address": "216 N Milpas St" }, "geometry": { "type": "Point", "coordinates": [ -119.681765304101845, 34.424018913207391 ] } },
{ "type": "Feature", "properties": { "id": "eeff09fe-ee35-4ab2-a0ab-a07b7ccab2b4", "name": "Oranjeboom", "category": "brewery", "address": "222 N Milpas St" }, "geometry": { "type": "Point", "coordinates": [ -119.681812, 34.424835 ] } },
{ "type": "Feature", "properties": { "id": "75d478a3-674e-4ef6-bf17-29a3f9e00d0d", "name": "Contented Cat", "category": "pet_groomer", "address": "1016 E Montecito St" }, "geometry": { "type": "Point", "coordinates": [ -119.680828222592751, 34.425610143639084 ] } },
{ "type": "Feature", "properties": { "id": "f74a5847-ec3c-4ff9-81f4-77d6a7d8456e", "name": "PetSmart", "category": "pet_store", "address": "222 N Milpas St" }, "geometry": { "type": "Point", "coordinates": [ -119.6812611, 34.425029 ] } },
{ "type": "Feature", "properties": { "id": "0a55f51e-3264-47fa-8a48-a34fa9e0d3a5", "name": "Trader Joes", "category": "grocery_store", "address": "222 N Milpas St" }, "geometry": { "type": "Point", "coordinates": [ -119.6815186, 34.4250353 ] } },
{ "type": "Feature", "properties": { "id": "2bde1f3b-2533-44be-b778-65af632d50b0", "name": "Trader Joe's", "category": "retail", "address": "222 N Milpas St" }, "geometry": { "type": "Point", "coordinates": [ -119.6818281, 34.4253644 ] } },
{ "type": "Feature", "properties": { "id": "00c10329-fb68-4a97-8ff3-ee8891fa4aaf", "name": "Parliament Tutors - Santa Barbara", "category": "private_tutor", "address": "301 N Alisos St" }, "geometry": { "type": "Point", "coordinates": [ -119.681758, 34.425647 ] } },
{ "type": "Feature", "properties": { "id": "275ab2ec-367b-44d7-9381-6374a20e9290", "name": "LibertyX Bitcoin ATM", "category": "atms", "address": "336 N Milpas St" }, "geometry": { "type": "Point", "coordinates": [ -119.6836708, 34.4254 ] } },
{ "type": "Feature", "properties": { "id": "a1062b02-e78c-476d-8437-7752f86db5e9", "name": "CVS Beauty", "category": "shopping", "address": "336 N Milpas St" }, "geometry": { "type": "Point", "coordinates": [ -119.68361, 34.42538 ] } },
{ "type": "Feature", "properties": { "id": "bdf94a64-40f7-4728-9c72-8f7f612d182d", "name": "Los Altos Restaurant", "category": "breakfast_and_brunch_restaurant", "address": "318 N Milpas St" }, "geometry": { "type": "Point", "coordinates": [ -119.68324606, 34.42507274 ] } },
{ "type": "Feature", "properties": { "id": "e806b9f5-0454-4e3d-89bf-f2b5043b8930", "name": "Milpas Taqueria", "category": "mexican_restaurant", "address": "316 N Milpas St" }, "geometry": { "type": "Point", "coordinates": [ -119.6828832, 34.4250377 ] } },
{ "type": "Feature", "properties": { "id": "b9fd964a-d091-4261-bf57-dc02e6bb04f0", "name": "House of Laundry", "category": "laundromat", "address": "310 N Milpas St" }, "geometry": { "type": "Point", "coordinates": [ -119.682866, 34.4249245 ] } },
{ "type": "Feature", "properties": { "id": "a0f51749-87ce-46e8-a7d2-1ff920a5ddf0", "name": "Assisted Home Recovery", "category": "health_and_medical", "address": "302 N Milpas St" }, "geometry": { "type": "Point", "coordinates": [ -119.682846, 34.424743 ] } },
{ "type": "Feature", "properties": { "id": "aad30e95-c254-4fce-8dca-8060cd4db353", "name": "AutoZone", "category": "automotive_parts_and_accessories", "address": "305 N Milpas St" }, "geometry": { "type": "Point", "coordinates": [ -119.6831357, 34.4245668 ] } },
{ "type": "Feature", "properties": { "id": "3b581775-e8ec-4f48-941f-395df0be7816", "name": "MedCenter", "category": "doctor", "address": "319 N Milpas St" }, "geometry": { "type": "Point", "coordinates": [ -119.683547499092882, 34.424642563296494 ] } },
{ "type": "Feature", "properties": { "id": "fd677db9-1238-4971-ba5c-2dcb37911fc4", "name": "Centro Medico", "category": "hospital", "address": "319 N Milpas St" }, "geometry": { "type": "Point", "coordinates": [ -119.683547, 34.424643 ] } },
{ "type": "Feature", "properties": { "id": "4ff0b7b7-2045-428d-84fe-8a4fd6aba70e", "name": "Western Union", "category": "money_transfer_services", "address": "314 N Milpas St" }, "geometry": { "type": "Point", "coordinates": [ -119.6832231, 34.4247909 ] } },
{ "type": "Feature", "properties": { "id": "0f9ea564-fa9e-43ea-84c9-92f9d8fd3723", "name": "UPS Access Point location", "category": "courier_and_delivery_services", "address": "336 N Milpas St" }, "geometry": { "type": "Point", "coordinates": [ -119.683284, 34.424783 ] } },
{ "type": "Feature", "properties": { "id": "db75d25c-59f9-45c6-bb51-03ba3de6f74c", "name": "Milpas Liquor and Deli", "category": "liquor_store", "address": "314 N Milpas St" }, "geometry": { "type": "Point", "coordinates": [ -119.6831741, 34.4248401 ] } },
{ "type": "Feature", "properties": { "id": "f101cd57-2afb-4f31-8cf7-288fb8a91043", "name": "Los Altos Restaurant", "category": "mexican_restaurant", "address": "318 N Milpas St" }, "geometry": { "type": "Point", "coordinates": [ -119.6833582, 34.4249514 ] } },
{ "type": "Feature", "properties": { "id": "1a6f1d12-e183-44f7-871f-83c1cb4ad8c9", "name": "Zak Dental", "category": "dentist", "address": "331 N Milpas St" }, "geometry": { "type": "Point", "coordinates": [ -119.684001, 34.4249528 ] } },
{ "type": "Feature", "properties": { "id": "d4eed46a-75cc-464e-9617-ef22e03322e4", "name": "ME Sabor Dance Studio", "category": "dance_school", "address": "810 E Gutierrez St" }, "geometry": { "type": "Point", "coordinates": [ -119.684696, 34.4246065 ] } },
{ "type": "Feature", "properties": { "id": "ced10cb2-b27f-4c3f-a24e-6b92144557e9", "name": "Airedanse", "category": "dance_school", "address": "810 E Gutierrez St" }, "geometry": { "type": "Point", "coordinates": [ -119.6847036, 34.4245959 ] } },
{ "type": "Feature", "properties": { "id": "89e7662f-6d21-4765-90a1-9991a135c4c4", "name": "Santa Barbara Centre for Aerial Dance", "category": "theatre", "address": "810 E Gutierrez St" }, "geometry": { "type": "Point", "coordinates": [ -119.68455, 34.42453 ] } },
{ "type": "Feature", "properties": { "id": "f1430b8b-3f2a-483f-b155-8b756351fa84", "name": "AirTrix", "category": "arts_and_crafts", "address": "336 N Nopal St" }, "geometry": { "type": "Point", "coordinates": [ -119.6849214, 34.4243789 ] } },
{ "type": "Feature", "properties": { "id": "b8f95bf7-1f1c-412e-ad91-47072bfcb727", "name": "tritoncorals", "category": "pet_store", "address": "812 E Gutierrez St" }, "geometry": { "type": "Point", "coordinates": [ -119.684596, 34.4246974 ] } },
{ "type": "Feature", "properties": { "id": "ee08daad-045b-4426-9d0c-063f538b7c5e", "name": "Specialty Plumbing", "category": "plumbing", "address": "817 E Gutierrez St" }, "geometry": { "type": "Point", "coordinates": [ -119.6846327, 34.424846 ] } },
{ "type": "Feature", "properties": { "id": "fd14c2af-34b8-459b-84cf-9be2096de3d9", "name": "Alvarez Automotive Repair and Smog", "category": "automotive_repair", "address": "335 N Milpas St" }, "geometry": { "type": "Point", "coordinates": [ -119.6840335, 34.4251414 ] } },
{ "type": "Feature", "properties": { "id": "d4bc6ca3-0346-45e5-9200-48b869b575bd", "name": "August Roofing & Solar", "category": "roofing", "address": "331 N Milpas St Ste 2C" }, "geometry": { "type": "Point", "coordinates": [ -119.6837285, 34.4251983 ] } },