{
"type": "FeatureCollection",
"name": "omf_santa_barbara",
"features": [
{ "type": "Feature", "properties": { "id": "5bae640e-6e44-4046-9457-a00777cad61e", "name": "Villa De Montecito", "category": "hotel", "address": "1930 N Jameson Ln" }, "geometry": { "type": "Point", "coordinates": [ -119.614799, 34.422505 ] } },
{ "type": "Feature", "properties": { "id": "87e3a71a-2294-4204-bebd-496a60c851d9", "name": "Santa Barbara Polo Fields", "category": "stadium_arena", "address": null }, "geometry": { "type": "Point", "coordinates": [ -119.6156097, 34.4222288 ] } },
{ "type": "Feature", "properties": { "id": "dec2a0bc-0051-4fc8-9208-9e7fbddf79bb", "name": "Said A Shehata M.D.", "category": "doctor", "address": "284 Gould Ln" }, "geometry": { "type": "Point", "coordinates": [ -119.61267, 34.42534 ] } },
{ "type": "Feature", "properties": { "id": "2f5ba4eb-3edd-4106-bc40-12c37f8ad36a", "name": "Innovation Loop", "category": "hiking_trail", "address": "100 Innovation Pl" }, "geometry": { "type": "Point", "coordinates": [ -119.6089935, 34.4226341 ] } },
{ "type": "Feature", "properties": { "id": "e36b1064-73a5-47cb-92d2-838cbcec319d", "name": "ShelterBox USA", "category": "printing_services", "address": "101 Innovation Pl" }, "geometry": { "type": "Point", "coordinates": [ -119.60801, 34.42181 ] } },
{ "type": "Feature", "properties": { "id": "a315629b-cd5d-43aa-9acb-dee57b18d8d9", "name": "QAD Inc.", "category": "software_development", "address": "101 Innovation Pl" }, "geometry": { "type": "Point", "coordinates": [ -119.6074719, 34.4218977 ] } },
{ "type": "Feature", "properties": { "id": "c4d69a5a-1733-4e06-9c4b-a7ccae8440c9", "name": "Summerland Inn", "category": "motel", "address": "2111 Ortega Hill Rd" }, "geometry": { "type": "Point", "coordinates": [ -119.6045769, 34.4216725 ] } },
{ "type": "Feature", "properties": { "id": "89864bdb-d3f2-4dc2-ad78-fa3e76ded191", "name": "Raufa Magid Feng Shui", "category": "interior_design", "address": "2150 Ortega Hill Rd" }, "geometry": { "type": "Point", "coordinates": [ -119.605096, 34.4223144 ] } },
{ "type": "Feature", "properties": { "id": "67c46167-4f72-4d39-b95b-d16a6bccfc10", "name": "Summerland Antique Collective", "category": "antique_store", "address": "2192 Ortega Hill Rd" }, "geometry": { "type": "Point", "coordinates": [ -119.6036812, 34.4217381 ] } },
{ "type": "Feature", "properties": { "id": "e4a0b90f-92f0-4049-b679-26eaa59cc8bd", "name": "Headwaters", "category": "business_manufacturing_and_supply", "address": "108 Pierpont Ave" }, "geometry": { "type": "Point", "coordinates": [ -119.602973, 34.4217398 ] } },
{ "type": "Feature", "properties": { "id": "8b3deec3-4ad0-466a-bb72-7a4b4c21fa29", "name": "Arrediamo Summerland", "category": "carpet_store", "address": "102 Pierpont Ave" }, "geometry": { "type": "Point", "coordinates": [ -119.6029704, 34.4216856 ] } },
{ "type": "Feature", "properties": { "id": "c54b5c10-fb6d-4e91-88c4-d336a6cecf2e", "name": "The Big Yellow House", "category": "shopping", "address": "108 Pierpont Ave" }, "geometry": { "type": "Point", "coordinates": [ -119.6029748, 34.4216807 ] } },
{ "type": "Feature", "properties": { "id": "101a7404-0f66-4ac8-a8d1-dd65691db57d", "name": "Summerland Beach", "category": "park", "address": "Beach Access" }, "geometry": { "type": "Point", "coordinates": [ -119.6020499, 34.4201623 ] } },
{ "type": "Feature", "properties": { "id": "935d84f0-7963-4dd3-9632-d4e84d524b1c", "name": "Lookout Park", "category": "park", "address": "2301 Finney St" }, "geometry": { "type": "Point", "coordinates": [ -119.6017354, 34.4205023 ] } },
{ "type": "Feature", "properties": { "id": "29fd5fdf-0f8f-4adb-bebb-ed6d7be7b074", "name": "Professional Protection", "category": "professional_services", "address": null }, "geometry": { "type": "Point", "coordinates": [ -119.6017104, 34.4205063 ] } },
{ "type": "Feature", "properties": { "id": "fb04210d-24f9-407a-bb55-a691200222b2", "name": "Blue Rhino Propane Exchange", "category": "propane_supplier", "address": "2285 Lillie Ave" }, "geometry": { "type": "Point", "coordinates": [ -119.6006905, 34.4214434 ] } },
{ "type": "Feature", "properties": { "id": "a8987a9c-924d-47be-8814-4abab749a567", "name": "Summerland Gas & Mart", "category": "gas_station", "address": "2285 Lillie Ave" }, "geometry": { "type": "Point", "coordinates": [ -119.60059, 34.42144 ] } },
{ "type": "Feature", "properties": { "id": "eef3b673-f10d-447d-a399-0d8efdf03974", "name": "Summerland Beach Cafe", "category": "american_restaurant", "address": "2294 Lillie Ave" }, "geometry": { "type": "Point", "coordinates": [ -119.600274, 34.4218992 ] } },
{ "type": "Feature", "properties": { "id": "eba86b47-8548-4ccf-97de-eea7a1093e08", "name": "Summerland Sandpiper Liquor", "category": "liquor_store", "address": "2262 Lillie Ave" }, "geometry": { "type": "Point", "coordinates": [ -119.6009193, 34.4216253 ] } },
{ "type": "Feature", "properties": { "id": "3d757e2c-6e27-409a-b9d1-a81042627740", "name": "Poppy's Cottage Summerland", "category": "cottage", "address": "123 Main Street" }, "geometry": { "type": "Point", "coordinates": [ -119.60078, 34.42171 ] } },
{ "type": "Feature", "properties": { "id": "17dc9e93-b1eb-409c-896a-54e9e4041f35", "name": "Bikini Factory", "category": "womens_clothing_store", "address": "2275 Ortega Hill Rd" }, "geometry": { "type": "Point", "coordinates": [ -119.6011845, 34.4215863 ] } },
{ "type": "Feature", "properties": { "id": "2bdc7dd9-9449-4169-88c2-8a1c36f2fe69", "name": "Indian Summers", "category": "womens_clothing_store", "address": "2275 Ortega Hill Rd" }, "geometry": { "type": "Point", "coordinates": [ -119.6012418, 34.4215977 ] } },
{ "type": "Feature", "properties": { "id": "d9cd7a65-9199-4b03-a998-4e6a4c246e84", "name": "Red Kettle Coffee", "category": "coffee_shop", "address": "2275 Ortega Hill Rd" }, "geometry": { "type": "Point", "coordinates": [ -119.6011777, 34.4216295 ] } },
{ "type": "Feature", "properties": { "id": "a5648c09-b2ec-41b4-8c47-7cbf76bfdcda", "name": "Sandpiper Liquors", "category": "liquor_store", "address": "2262 Ortega Hill Rd" }, "geometry": { "type": "Point", "coordinates": [ -119.601237093751152, 34.421848141333818 ] } },
{ "type": "Feature", "properties": { "id": "f8941784-7768-4839-899e-99b6ead43651", "name": "Montecito Academy", "category": "elementary_school", "address": "2246 Lillie Ave" }, "geometry": { "type": "Point", "coordinates": [ -119.6016171, 34.4221687 ] } },
{ "type": "Feature", "properties": { "id": "37425f9a-47da-42aa-a251-7642f4eee273", "name": "Blooming Nails", "category": "nail_salon", "address": "2246 Lillie Ave" }, "geometry": { "type": "Point", "coordinates": [ -119.6015533, 34.4221759 ] } },
{ "type": "Feature", "properties": { "id": "90357dd1-79a6-4b53-9733-57b6240d7fa1", "name": "Tinker's Burgers", "category": "burger_restaurant", "address": "2275 Ortega Hill Rd" }, "geometry": { "type": "Point", "coordinates": [ -119.6012982432771, 34.421542476193473 ] } },
{ "type": "Feature", "properties": { "id": "8a0ddc59-78bf-48d0-af7e-83381c7ccf8f", "name": "BlueStar Parking", "category": "parking", "address": "126 E Haley St" }, "geometry": { "type": "Point", "coordinates": [ -119.6019015, 34.4218071 ] } },
{ "type": "Feature", "properties": { "id": "410d698b-a7cc-4ed9-a058-bdb5478c8afe", "name": "United States Postal Service", "category": "post_office", "address": "2245 Lillie Ave" }, "geometry": { "type": "Point", "coordinates": [ -119.601986557245255, 34.421873352391586 ] } },
{ "type": "Feature", "properties": { "id": "c791bcc9-bc50-46c4-b70f-b5b271dc3738", "name": "The Big Yellow House", "category": "real_estate", "address": "108 Pierpont St" }, "geometry": { "type": "Point", "coordinates": [ -119.6024624, 34.4216154 ] } },
{ "type": "Feature", "properties": { "id": "74e6bc43-b187-478e-a516-3e9b05392d24", "name": "Mary Suding Antiques", "category": "antique_store", "address": "2240 Lillie Ave" }, "geometry": { "type": "Point", "coordinates": [ -119.6017153, 34.4222389 ] } },
{ "type": "Feature", "properties": { "id": "514eab48-f006-489f-b98e-71369bc288b3", "name": "Coffin Family Trail", "category": "hiking_trail", "address": null }, "geometry": { "type": "Point", "coordinates": [ -119.605496, 34.429628 ] } },
{ "type": "Feature", "properties": { "id": "d8278497-9090-4a19-9072-86c356042186", "name": "Valley Club of Montecito", "category": "golf_course", "address": "1901 E Valley Rd" }, "geometry": { "type": "Point", "coordinates": [ -119.6152557, 34.4330929 ] } },
{ "type": "Feature", "properties": { "id": "5e050be6-4ee3-463f-9344-82da3b8d908f", "name": "Birnam Wood Golf Club", "category": "golf_course", "address": "1941 E Valley Rd" }, "geometry": { "type": "Point", "coordinates": [ -119.6083843, 34.4332322 ] } },
{ "type": "Feature", "properties": { "id": "952d7852-86c9-4a63-beb4-17d7a5cad510", "name": "Montecito Country Club", "category": "golf_course", "address": null }, "geometry": { "type": "Point", "coordinates": [ -119.615910260852075, 34.437965510498216 ] } },
{ "type": "Feature", "properties": { "id": "33d2a61a-d0a6-4afb-b4b4-55721d75d9be", "name": "Brilliance in Commerce", "category": "financial_service", "address": null }, "geometry": { "type": "Point", "coordinates": [ -119.614666700363145, 34.438689792749848 ] } },
{ "type": "Feature", "properties": { "id": "4c9f58f0-4aaa-4910-a208-f6eefe99efab", "name": "Birnam Wood Golf Club", "category": "golf_course", "address": "2031 Packing House Rd" }, "geometry": { "type": "Point", "coordinates": [ -119.613750517617959, 34.438838689001933 ] } },
{ "type": "Feature", "properties": { "id": "af840db7-1891-4880-a7c6-8413704f5f6b", "name": "Cabana Las Floras", "category": "hotel", "address": "649 Tabor Ln" }, "geometry": { "type": "Point", "coordinates": [ -119.6038363, 34.437714 ] } },
{ "type": "Feature", "properties": { "id": "d289d28b-937f-4c7d-b363-9d303090a50c", "name": "Carla's Cottages", "category": "hotel", "address": "2126 E Valley Rd" }, "geometry": { "type": "Point", "coordinates": [ -119.6053435, 34.4374039 ] } },
{ "type": "Feature", "properties": { "id": "61884863-e6ca-4cce-b62d-ff76f85a16aa", "name": "Buena Vista Trailhead", "category": "hiking_trail", "address": "1550 Park Ln" }, "geometry": { "type": "Point", "coordinates": [ -119.6109182, 34.4486747 ] } },
{ "type": "Feature", "properties": { "id": "3e520ba9-fbeb-4826-a5fd-78c1d5df01f7", "name": "The Speakeasy", "category": "speakeasy", "address": "900 San Ysidro Ln" }, "geometry": { "type": "Point", "coordinates": [ -119.623444, 34.448016 ] } },
{ "type": "Feature", "properties": { "id": "2c6b2b51-3547-44ac-b79e-5b1fd542511c", "name": "McMenemy Trail", "category": "hiking_trail", "address": null }, "geometry": { "type": "Point", "coordinates": [ -119.6291256, 34.4523319 ] } },
{ "type": "Feature", "properties": { "id": "d7babd90-c837-45db-837f-90ba6abbb942", "name": "The Stonehouse", "category": "seafood_restaurant", "address": "900 San Ysidro Ln" }, "geometry": { "type": "Point", "coordinates": [ -119.626229, 34.445678 ] } },
{ "type": "Feature", "properties": { "id": "97a2a6e9-2d8c-4298-8b38-463bec4b08bb", "name": "Plow & Angel", "category": "bar", "address": "900 San Ysidro Ln" }, "geometry": { "type": "Point", "coordinates": [ -119.626229, 34.445678 ] } },
{ "type": "Feature", "properties": { "id": "6c65daf1-4464-4547-9720-0948fe297dfa", "name": "San Ysidro Trailhead", "category": "mexican_restaurant", "address": "San Ysidro Trail" }, "geometry": { "type": "Point", "coordinates": [ -119.6223012, 34.4460323 ] } },
{ "type": "Feature", "properties": { "id": "0ceab1fe-d06c-4b47-b58a-b77fdae797ed", "name": "Plow & Angel", "category": "american_restaurant", "address": "900 San Ysidro Ln" }, "geometry": { "type": "Point", "coordinates": [ -119.623099431168214, 34.446920927954068 ] } },
{ "type": "Feature", "properties": { "id": "40a9959c-dafd-4d5c-af05-2cb20612ab3f", "name": "San Ysidro Ranch", "category": "american_restaurant", "address": "900 San Ysidro Ln" }, "geometry": { "type": "Point", "coordinates": [ -119.6230989, 34.4468431 ] } },
{ "type": "Feature", "properties": { "id": "0b3098cd-59d0-406e-a1b7-0a39cd66017a", "name": "Stonehouse at San Ysidro Ranch", "category": "american_restaurant", "address": "900 San Ysidro Ln" }, "geometry": { "type": "Point", "coordinates": [ -119.623076214729565, 34.446764537277716 ] } },
{ "type": "Feature", "properties": { "id": "bfb73a23-8ebd-42ed-a380-fedd5bd74dd3", "name": "The Stonehouse Restaurant", "category": "american_restaurant", "address": "900 San Ysidro Ln" }, "geometry": { "type": "Point", "coordinates": [ -119.6231275, 34.4467 ] } },
{ "type": "Feature", "properties": { "id": "878db307-1a45-43c5-aafb-d2b9eb2658c0", "name": "San Ysidro Falls Trail", "category": "hiking_trail", "address": "1814 E Mountain Dr" }, "geometry": { "type": "Point", "coordinates": [ -119.6217012, 34.4459374 ] } },
{ "type": "Feature", "properties": { "id": "bc266b07-20b0-4afc-860b-a227bfc20557", "name": "Immaculate Heart Center - La Casa de Maria - Montecito", "category": "gym", "address": "888 San Ysidro Ln" }, "geometry": { "type": "Point", "coordinates": [ -119.623752, 34.444871 ] } },
{ "type": "Feature", "properties": { "id": "e84c7bef-cc42-45f2-9376-35b064db119d", "name": "La Casa de Maria", "category": "community_services_non_profits", "address": "800 El Bosque Rd" }, "geometry": { "type": "Point", "coordinates": [ -119.6240132, 34.4446949 ] } },
{ "type": "Feature", "properties": { "id": "bddcf808-0e1e-4516-a4e5-838780334f5c", "name": "La Casa de Maria", "category": "church_cathedral", "address": "800 El Bosque Rd" }, "geometry": { "type": "Point", "coordinates": [ -119.622840209099166, 34.443097317053841 ] } },
{ "type": "Feature", "properties": { "id": "7a217e28-3edd-4736-aa4e-6f5c6454648f", "name": "J & S East Valley Garage", "category": "automotive_repair", "address": "1610 E Valley Rd" }, "geometry": { "type": "Point", "coordinates": [ -119.6265647, 34.4369682 ] } },
{ "type": "Feature", "properties": { "id": "9442eb8c-8f32-4dcf-8b87-c9feeee7102a", "name": "Knowlwood Tennis Club", "category": "tennis_court", "address": "1675 E Valley Rd" }, "geometry": { "type": "Point", "coordinates": [ -119.6245389, 34.4380666 ] } },
{ "type": "Feature", "properties": { "id": "3b7081db-ff0a-46d6-8728-500d99ae3f04", "name": "East Valley Trail", "category": "hiking_trail", "address": "East Valley Road" }, "geometry": { "type": "Point", "coordinates": [ -119.6224246, 34.4349214 ] } },
{ "type": "Feature", "properties": { "id": "dadd356d-d69e-4668-8d1f-fcee0f48499b", "name": "Ennisbrook Owners Association", "category": "non_governmental_association", "address": "420 Ennisbrook Dr" }, "geometry": { "type": "Point", "coordinates": [ -119.6203233, 34.4312849 ] } },
{ "type": "Feature", "properties": { "id": "314f1d56-c5b2-46c7-a179-296a7ce731f7", "name": "David Iglesias Photography", "category": "photographer", "address": "318 Ennisbrook Dr" }, "geometry": { "type": "Point", "coordinates": [ -119.620717206569296, 34.431452312380493 ] } },
{ "type": "Feature", "properties": { "id": "a03b4a04-a0f7-4aeb-9c9d-db48c6601df9", "name": "Santa Barbara Travel Bureau", "category": "transportation", "address": "1485 E Valley Rd" }, "geometry": { "type": "Point", "coordinates": [ -119.631395680921955, 34.436599177353891 ] } },
{ "type": "Feature", "properties": { "id": "276b3866-2c5b-478a-b5a7-d03616f266e1", "name": "Gazebo Gardens", "category": "flowers_and_gifts_shop", "address": "1505 E Valley Rd" }, "geometry": { "type": "Point", "coordinates": [ -119.63163, 34.43658 ] } },
{ "type": "Feature", "properties": { "id": "83fa2156-d2b8-42cf-bb66-f98db44025dc", "name": "Gray and Gray Architects", "category": "architect", "address": "1505 E Valley Rd #A" }, "geometry": { "type": "Point", "coordinates": [ -119.631637573242188, 34.436580657958984 ] } },
{ "type": "Feature", "properties": { "id": "c186c838-c47c-4893-bb53-ff2e48d3acc2", "name": "Northern Trust", "category": "financial_service", "address": "1485 E Valley Rd Ste 7" }, "geometry": { "type": "Point", "coordinates": [ -119.632721919506508, 34.436484724746343 ] } },
{ "type": "Feature", "properties": { "id": "27efdbc8-bda8-4ab0-8be8-d8dab515ca65", "name": "Harbor Hills Wealth Management", "category": "financial_advising", "address": "1485 E Valley Rd" }, "geometry": { "type": "Point", "coordinates": [ -119.6327002, 34.4364955 ] } },
{ "type": "Feature", "properties": { "id": "4dff4950-3faa-4681-8f44-121b4b117170", "name": "Hartmann Peter DDS", "category": "dentist", "address": "1483 E Valley Rd Ste M" }, "geometry": { "type": "Point", "coordinates": [ -119.633146575294802, 34.436532431059852 ] } },
{ "type": "Feature", "properties": { "id": "9a6d54da-0ad0-4670-b9f3-2017a2fb4deb", "name": "Dadiana Hair Care & Mineral Solutions Cosmetics", "category": "beauty_salon", "address": "1485 E Valley Rd" }, "geometry": { "type": "Point", "coordinates": [ -119.63306, 34.43659 ] } },
{ "type": "Feature", "properties": { "id": "d5a7a3da-53a7-43a2-83e7-624e1b918273", "name": "The Village Cheese and Wine Shop", "category": "wine_wholesaler", "address": "1483 E Valley Rd" }, "geometry": { "type": "Point", "coordinates": [ -119.633073023239731, 34.436434885263829 ] } },
{ "type": "Feature", "properties": { "id": "85df9b83-c518-4415-a004-cbd9f4727c1e", "name": "Manning Park", "category": "park", "address": "449 San Ysidro Rd" }, "geometry": { "type": "Point", "coordinates": [ -119.6332502, 34.4341888 ] } },
{ "type": "Feature", "properties": { "id": "4b6379fa-86e8-4be0-9eb8-0a9864067603", "name": "Miramar Beach Montecito", "category": "beach", "address": null }, "geometry": { "type": "Point", "coordinates": [ -119.632, 34.4337 ] } },
{ "type": "Feature", "properties": { "id": "67b2bb7a-647d-4a6a-8d65-35efb524dd51", "name": "Montecito Union School District", "category": "elementary_school", "address": "385 San Ysidro Rd" }, "geometry": { "type": "Point", "coordinates": [ -119.6327934, 34.4327468 ] } },
{ "type": "Feature", "properties": { "id": "68f99d52-87e1-4d1c-b93f-58cf26c8760e", "name": "Coast Side Figure Club - Santa Barbara", "category": "gym", "address": "591 Santa Rosa Ln" }, "geometry": { "type": "Point", "coordinates": [ -119.63138, 34.43262 ] } },
{ "type": "Feature", "properties": { "id": "9a36b117-4791-4c81-baec-4efc36d8fd16", "name": "Montecito Family YMCA", "category": "gym", "address": "591 Santa Rosa Ln" }, "geometry": { "type": "Point", "coordinates": [ -119.6309709, 34.4321427 ] } },
{ "type": "Feature", "properties": { "id": "46ae271b-5170-4148-90db-84624c8b7138", "name": "Peppers Estate", "category": "bed_and_breakfast", "address": "430 Hot Springs Rd" }, "geometry": { "type": "Point", "coordinates": [ -119.6406648, 34.4338329 ] } },
{ "type": "Feature", "properties": { "id": "d7c6d10b-ae4a-49fb-bea3-f96af78dd9e5", "name": "Casa del Herrero", "category": "history_museum", "address": "1387 E Valley Rd" }, "geometry": { "type": "Point", "coordinates": [ -119.6364315, 34.4354278 ] } },
{ "type": "Feature", "properties": { "id": "dc8534cf-a86d-4caf-8adc-f112a05a42fa", "name": "Our Lady of Mt Carmel", "category": "evangelical_church", "address": "1332 E Valley Rd" }, "geometry": { "type": "Point", "coordinates": [ -119.640079, 34.436813 ] } },
{ "type": "Feature", "properties": { "id": "87b68510-0808-4aca-8ad8-fdf2ae950f1d", "name": "El Montecito Presbyterian Church", "category": "church_cathedral", "address": "1455 E Valley Rd" }, "geometry": { "type": "Point", "coordinates": [ -119.6343714, 34.4367186 ] } },
{ "type": "Feature", "properties": { "id": "cb4ea4be-8c47-40b1-bd21-7a0f4d3e70ff", "name": "Journey Garage Door", "category": "garage_door_service", "address": "1407 E Valley Rd" }, "geometry": { "type": "Point", "coordinates": [ -119.63471918, 34.43689846 ] } },
{ "type": "Feature", "properties": { "id": "5a7a474e-e202-400f-9633-2ce40b34d368", "name": "Montecito Village Salon and Blow Dry Bar", "category": "hair_salon", "address": "1470 E Valley Rd" }, "geometry": { "type": "Point", "coordinates": [ -119.633639, 34.4373355 ] } },
{ "type": "Feature", "properties": { "id": "759224ca-e898-44d2-864b-9ebdcd16545b", "name": "Montecito Natural Foods", "category": "health_food_store", "address": "1470 E Valley Rd" }, "geometry": { "type": "Point", "coordinates": [ -119.6336914, 34.4375058 ] } },
{ "type": "Feature", "properties": { "id": "c7362cd5-9971-4349-83e7-988c3416c943", "name": "United States Postal Service", "category": "shipping_center", "address": "1470 E Valley Rd, Ste H" }, "geometry": { "type": "Point", "coordinates": [ -119.6336976, 34.4375076 ] } },
{ "type": "Feature", "properties": { "id": "410041ac-a1d8-47c5-b0b2-d91c095212d4", "name": "Imagine", "category": "gift_shop", "address": "1470 E Valley Rd" }, "geometry": { "type": "Point", "coordinates": [ -119.633753738043652, 34.437917552464363 ] } },
{ "type": "Feature", "properties": { "id": "b7044d48-7749-4105-9908-87d4207015cb", "name": "Tresor Montecito", "category": "jewelry_store", "address": "1470 E Valley Rd" }, "geometry": { "type": "Point", "coordinates": [ -119.6336805, 34.437859 ] } },
{ "type": "Feature", "properties": { "id": "ab8818a2-b8ce-404f-a77c-99a220498af0", "name": "Trainest Inc.", "category": "active_life", "address": "1470 E Valley Rd" }, "geometry": { "type": "Point", "coordinates": [ -119.6338258, 34.4376734 ] } },
{ "type": "Feature", "properties": { "id": "06b8869b-d295-40f8-97ae-5cc9642abbdd", "name": "PROVEN STRATEGIES Marketing, Business, and Communication Services", "category": "marketing_agency", "address": "1470 E Valley Rd Unit 50812" }, "geometry": { "type": "Point", "coordinates": [ -119.633789, 34.437717 ] } },
{ "type": "Feature", "properties": { "id": "8f979538-a3a1-43d1-afe4-f65db3505cfa", "name": "Bissell Clinic", "category": "chiropractor", "address": "1470 E Valley Rd" }, "geometry": { "type": "Point", "coordinates": [ -119.6336711, 34.437714 ] } },
{ "type": "Feature", "properties": { "id": "d9749e25-b4a9-49b0-ae83-d2ed8ae44117", "name": "Zen Divorce Solutions", "category": "divorce_and_family_law", "address": "1470 E Valley Rd" }, "geometry": { "type": "Point", "coordinates": [ -119.6337133, 34.4377057 ] } },
{ "type": "Feature", "properties": { "id": "c1362484-e429-4d99-9ee6-19d5c59ba3a7", "name": "Kismet Montecito", "category": "lingerie_store", "address": "1470 E Valley Rd" }, "geometry": { "type": "Point", "coordinates": [ -119.6336689, 34.4377192 ] } },
{ "type": "Feature", "properties": { "id": "1c2e2f8b-30b7-4d96-b824-a413f9685c77", "name": "Stationery Collection", "category": "cards_and_stationery_store", "address": "1470 E Valley Rd Ste K" }, "geometry": { "type": "Point", "coordinates": [ -119.633476, 34.437813 ] } },
{ "type": "Feature", "properties": { "id": "ccc7c89d-b85a-4898-90b0-1d3c8b8a9c80", "name": "True Value", "category": "hardware_store", "address": "1470 E Valley Rd" }, "geometry": { "type": "Point", "coordinates": [ -119.6334316, 34.4378784 ] } },
{ "type": "Feature", "properties": { "id": "3b369c9c-513d-4fe0-9311-1c45cd863cbf", "name": "Bryant & Sons", "category": "jewelry_store", "address": "1482 E Valley Rd" }, "geometry": { "type": "Point", "coordinates": [ -119.633117, 34.437858 ] } },
{ "type": "Feature", "properties": { "id": "c4838c8a-58d0-4f4a-ab50-ef3fed2b2811", "name": "Signature Parking", "category": "parking", "address": "1482 E Valley Rd" }, "geometry": { "type": "Point", "coordinates": [ -119.6330984, 34.4378545 ] } },
{ "type": "Feature", "properties": { "id": "17860556-1c37-4c95-b8e0-164e3e87747a", "name": "Brittingham Family Foundation", "category": "community_services_non_profits", "address": "1482 E Valley Rd" }, "geometry": { "type": "Point", "coordinates": [ -119.6331758, 34.4379581 ] } },
{ "type": "Feature", "properties": { "id": "def7aa9b-6c8e-4aa8-84db-9b7ad9b1fe03", "name": "MyGlobalClassroom", "category": "education", "address": "525 San Ysidro Rd" }, "geometry": { "type": "Point", "coordinates": [ -119.6329772, 34.4379621 ] } },
{ "type": "Feature", "properties": { "id": "a4c40400-6d62-4493-88f3-d1d8d95f4ceb", "name": "A Loving Helper", "category": "home_health_care", "address": "1482 E Valley Rd" }, "geometry": { "type": "Point", "coordinates": [ -119.6331669, 34.4378311 ] } },
{ "type": "Feature", "properties": { "id": "d7ecdd80-ddaa-4421-aee9-d27e7fac6b90", "name": "Artiste Concierge Service", "category": "professional_services", "address": "1482 E Valley Rd" }, "geometry": { "type": "Point", "coordinates": [ -119.6331641, 34.4378033 ] } },
{ "type": "Feature", "properties": { "id": "a66a5fbe-fcaf-4056-9671-6bb3ae572043", "name": "Intronetworks", "category": "information_technology_company", "address": "1482 E Valley Rd" }, "geometry": { "type": "Point", "coordinates": [ -119.6330411128165, 34.437681258130766 ] } },
{ "type": "Feature", "properties": { "id": "17de4538-ddc4-48bc-a685-714e6d55bb18", "name": "Tenor Partners", "category": "corporate_office", "address": "1482 E Valley Rd" }, "geometry": { "type": "Point", "coordinates": [ -119.6330411128165, 34.437681258130766 ] } },
{ "type": "Feature", "properties": { "id": "19381a68-3261-410d-aa67-adf18b39ea7f", "name": "The UPS Store 7016", "category": "printing_services", "address": "525 San Ysidro Rd" }, "geometry": { "type": "Point", "coordinates": [ -119.632911, 34.437668 ] } },
{ "type": "Feature", "properties": { "id": "58960353-49a1-482c-85a2-60cfde394cbc", "name": "Nonprofit Kinect", "category": "community_center", "address": "1482 E Valley Rd" }, "geometry": { "type": "Point", "coordinates": [ -119.633039030716134, 34.437614062449164 ] } },
{ "type": "Feature", "properties": { "id": "c40b1e8f-29fb-47bd-aeb7-8b142e43f439", "name": "Natural Concept Tree Care", "category": "tree_services", "address": "1470 E Valley Rd" }, "geometry": { "type": "Point", "coordinates": [ -119.6335045, 34.4375912 ] } },
{ "type": "Feature", "properties": { "id": "162fd380-93b2-4398-ae7e-aa1a181b6cc7", "name": "INEVIFIT", "category": "business_manufacturing_and_supply", "address": "1470 E Valley Rd" }, "geometry": { "type": "Point", "coordinates": [ -119.6332801, 34.4375478 ] } },
{ "type": "Feature", "properties": { "id": "5f8162f6-7cbf-42ba-93e6-be2269f2ae5f", "name": "Tecolote Book Shop", "category": "bookstore", "address": "1470 E Valley Rd" }, "geometry": { "type": "Point", "coordinates": [ -119.633361, 34.4374612 ] } },
{ "type": "Feature", "properties": { "id": "f4aa0b53-d5cb-4832-83cf-dc13a02d89a8", "name": "Presidio Commercial Real Estate", "category": "real_estate", "address": "1482 E Valley Rd" }, "geometry": { "type": "Point", "coordinates": [ -119.633082, 34.4373368 ] } },
{ "type": "Feature", "properties": { "id": "13abe98b-418f-43a5-8c29-42f65617b858", "name": "LL Transportation", "category": "limo_services", "address": "1482 E Valley Rd" }, "geometry": { "type": "Point", "coordinates": [ -119.632957, 34.437248 ] } },
{ "type": "Feature", "properties": { "id": "d60e64b5-d1e8-471d-a6c7-7fe3a23a899e", "name": "Sotheby's International Realty", "category": "real_estate", "address": "1482 E Valley Rd" }, "geometry": { "type": "Point", "coordinates": [ -119.633003, 34.4373013 ] } },
{ "type": "Feature", "properties": { "id": "52d3edb7-ef01-43e5-bbc6-077e6d8a152d", "name": "Sandy Moss Jewelry", "category": "jewelry_store", "address": "1482 E Valley Rd" }, "geometry": { "type": "Point", "coordinates": [ -119.6330839, 34.4373094 ] } },
{ "type": "Feature", "properties": { "id": "7cfdb58f-f936-4718-9732-b8961c92eec4", "name": "Wells Fargo ATM", "category": "atms", "address": "1482 E Valley Rd" }, "geometry": { "type": "Point", "coordinates": [ -119.6330899, 34.4373112 ] } },
{ "type": "Feature", "properties": { "id": "833d5201-2891-4918-9f3c-e19861275239", "name": "Marc Normand Gelinas Interior Design", "category": "interior_design", "address": "1482 E Valley Rd" }, "geometry": { "type": "Point", "coordinates": [ -119.6330894, 34.4373137 ] } },
{ "type": "Feature", "properties": { "id": "6575cbeb-6437-4639-a66c-2d43d9290c8d", "name": "Upper Village Montecito", "category": "advertising_agency", "address": "1482 E Valley Rd" }, "geometry": { "type": "Point", "coordinates": [ -119.6332097, 34.4371921 ] } },
{ "type": "Feature", "properties": { "id": "50f0da90-e120-4dd8-bca4-e6a64eac1b59", "name": "Megan Joy Havrda Business Intuitive", "category": "restaurant", "address": "1482 E Valley Rd" }, "geometry": { "type": "Point", "coordinates": [ -119.63302653816659, 34.437210887788233 ] } },
{ "type": "Feature", "properties": { "id": "abbc514f-7685-4294-93bf-f48a1401be72", "name": "Santa Barbara Appliance Repair Pros", "category": "automotive_services_and_repair", "address": "1482 E Valley Rd" }, "geometry": { "type": "Point", "coordinates": [ -119.632955067758658, 34.437180538307786 ] } },
{ "type": "Feature", "properties": { "id": "a9678cbb-8cef-4714-87bc-24c2d164ef09", "name": "DeAragon Group", "category": "real_estate_agent", "address": "1482 E Valley Rd" }, "geometry": { "type": "Point", "coordinates": [ -119.63299, 34.43716 ] } },
{ "type": "Feature", "properties": { "id": "be74f563-6cce-4325-b7fd-d861bbd88b64", "name": "Michael Alexander Giuffrida, MD Plastic Surgeon", "category": "doctor", "address": "1482 E Valley Rd" }, "geometry": { "type": "Point", "coordinates": [ -119.63299, 34.43716 ] } },
{ "type": "Feature", "properties": { "id": "706b8abc-b6e4-46f9-a511-e3db938f78cb", "name": "Santa Barbara Real Estate", "category": "real_estate_service", "address": "1482 E Valley Rd Ste 44" }, "geometry": { "type": "Point", "coordinates": [ -119.633024456083774, 34.437143691916198 ] } },
{ "type": "Feature", "properties": { "id": "28ae6914-84d7-4f8e-bd17-b48d0ad2b3df", "name": "Montecito Weddings", "category": "wedding_planning", "address": "1482 E Valley Rd #312" }, "geometry": { "type": "Point", "coordinates": [ -119.632895, 34.43707332 ] } },
{ "type": "Feature", "properties": { "id": "afae07f3-f7c7-4852-b3de-f3bec621ae30", "name": "The Northern Trust Company", "category": "business_management_services", "address": "1485 E Valley Rd" }, "geometry": { "type": "Point", "coordinates": [ -119.6329249, 34.4370553 ] } },
{ "type": "Feature", "properties": { "id": "bdcadf1a-fd94-4a94-bcd9-fa1117ed2603", "name": "Spark Leadership Consulting", "category": "business_management_services", "address": "1482 E Valley Rd" }, "geometry": { "type": "Point", "coordinates": [ -119.632995, 34.4370496 ] } },
{ "type": "Feature", "properties": { "id": "759a8bc4-76e5-4510-8743-edb44bc78de3", "name": "UPS Authorized Shipping Outlet", "category": "courier_and_delivery_services", "address": "1482 E VALLEY Rd Ste 42" }, "geometry": { "type": "Point", "coordinates": [ -119.63311, 34.437057 ] } },
{ "type": "Feature", "properties": { "id": "71a796fd-7c06-4b2d-9ec8-2c6f0b081315", "name": "Union Bank", "category": "bank_credit_union", "address": "1483 E Valley Rd" }, "geometry": { "type": "Point", "coordinates": [ -119.6331614, 34.437038 ] } },
{ "type": "Feature", "properties": { "id": "e98c360a-8f8f-4398-8e92-b2585e11ca4f", "name": "Janine Huarte Real Estate", "category": "real_estate_agent", "address": "1482 E Valley Rd" }, "geometry": { "type": "Point", "coordinates": [ -119.633159, 34.4371387 ] } },
{ "type": "Feature", "properties": { "id": "58a5ef8b-82fb-4247-8e1e-2e971a068355", "name": "Garner Construction", "category": "home_improvement_store", "address": null }, "geometry": { "type": "Point", "coordinates": [ -119.6335, 34.43705 ] } },
{ "type": "Feature", "properties": { "id": "93f0c3c4-0fca-46c6-bbc6-51df7c7b40bb", "name": "The Village Service Station, Montecito Ca", "category": "gas_station", "address": "1476 E Valley Rd" }, "geometry": { "type": "Point", "coordinates": [ -119.6333338, 34.4372413 ] } },
{ "type": "Feature", "properties": { "id": "08ba9605-f68b-4843-aaf3-1ba3224e715a", "name": "Blue Rhino Propane Exchange", "category": "propane_supplier", "address": "1476 E Valley Rd" }, "geometry": { "type": "Point", "coordinates": [ -119.6333, 34.437255 ] } },
{ "type": "Feature", "properties": { "id": "5b0f5c79-9491-4896-9bc3-adf0a1780a68", "name": "Montecito Customs", "category": "automotive_parts_and_accessories", "address": "1476 E Valley Rd" }, "geometry": { "type": "Point", "coordinates": [ -119.6332642, 34.4373162 ] } },
{ "type": "Feature", "properties": { "id": "51d77cbc-d08c-4fbf-ab67-138c7b713574", "name": "Zen Wealth Consultant Services", "category": "financial_advising", "address": "1470 E Valley Rd" }, "geometry": { "type": "Point", "coordinates": [ -119.633731, 34.437178 ] } },
{ "type": "Feature", "properties": { "id": "273225b6-0424-454b-965e-ee7eca6c8e52", "name": "Salon Du Mont", "category": "beauty_salon", "address": "1470 E Valley Rd" }, "geometry": { "type": "Point", "coordinates": [ -119.633731, 34.437178 ] } },
{ "type": "Feature", "properties": { "id": "f50f30e3-b5ef-46dd-a3be-0b77f45d4dc3", "name": "Lilibeth Hair & Makeup Studio", "category": "beauty_salon", "address": "1485 E Valley Rd" }, "geometry": { "type": "Point", "coordinates": [ -119.6337622, 34.4372828 ] } },
{ "type": "Feature", "properties": { "id": "76198261-3ce8-4bbf-9da3-f2c497dbe49c", "name": "Nelson Construction", "category": "contractor", "address": "512 Santa Angela Ln" }, "geometry": { "type": "Point", "coordinates": [ -119.634225, 34.437189 ] } },
{ "type": "Feature", "properties": { "id": "586b3367-28ab-45e7-8180-d1e21f2ace85", "name": "Caruso Miramar BS", "category": "hotel", "address": "512 Santa Angela Ln" }, "geometry": { "type": "Point", "coordinates": [ -119.634225, 34.437189 ] } },
{ "type": "Feature", "properties": { "id": "f9cdac5a-d040-4ce1-b234-be33b21c1262", "name": "Montecito Village True Value Hardware", "category": "retail", "address": "1470 E Valley Rd" }, "geometry": { "type": "Point", "coordinates": [ -119.6337146, 34.4370002 ] } },
{ "type": "Feature", "properties": { "id": "bc6f7874-f568-4ee5-9c35-9b4c9d954340", "name": "Soma Skin Spa", "category": "skin_care", "address": "1485 E Valley Rd" }, "geometry": { "type": "Point", "coordinates": [ -119.6332255, 34.4367809 ] } },
{ "type": "Feature", "properties": { "id": "c388fdbd-937f-4f91-a0e5-7f6257f95d1e", "name": "Montecito Library", "category": "library", "address": "1469 E Valley Rd" }, "geometry": { "type": "Point", "coordinates": [ -119.6335558, 34.4368584 ] } },
{ "type": "Feature", "properties": { "id": "883079aa-204b-4f03-a073-fdf92c3c8137", "name": "Montecito Association", "category": "community_services_non_profits", "address": "1469 E Valley Rd" }, "geometry": { "type": "Point", "coordinates": [ -119.6335563, 34.4368599 ] } },
{ "type": "Feature", "properties": { "id": "03533bec-574b-4e88-af79-81b362111208", "name": "Peter Hartmann, D.D.S.", "category": "dentist", "address": "1483 E Valley Rd" }, "geometry": { "type": "Point", "coordinates": [ -119.6331221, 34.4368997 ] } },
{ "type": "Feature", "properties": { "id": "a6f77cdd-cc49-4777-8cd7-1878ec318186", "name": "Lee Stanton", "category": "antique_store", "address": "1485 E Valley Rd" }, "geometry": { "type": "Point", "coordinates": [ -119.6331737, 34.4369627 ] } },
{ "type": "Feature", "properties": { "id": "36354c21-e14a-476d-97ab-4300f8501d8e", "name": "Montecito Gourmet", "category": "sandwich_shop", "address": "1485 E Valley Rd" }, "geometry": { "type": "Point", "coordinates": [ -119.6329804, 34.4367428 ] } },
{ "type": "Feature", "properties": { "id": "fd2fceb1-570b-436e-b80b-3198072fb64d", "name": "Via Vai Trattoria Pizzeria", "category": "pizza_restaurant", "address": "1483 E Valley Rd" }, "geometry": { "type": "Point", "coordinates": [ -119.6330852, 34.4367216 ] } },
{ "type": "Feature", "properties": { "id": "d2c97ed4-a49a-4218-8adb-27ede6f92701", "name": "Private Wealth Management | U.S. Bank", "category": "bank_credit_union", "address": "1483 E Valley Rd" }, "geometry": { "type": "Point", "coordinates": [ -119.633198, 34.436695 ] } },
{ "type": "Feature", "properties": { "id": "49037dd5-5f11-4ec4-a004-9ea3a539cf74", "name": "Eider Studio", "category": "mattress_store", "address": "1485 E Valley Rd" }, "geometry": { "type": "Point", "coordinates": [ -119.632598, 34.4367035 ] } },
{ "type": "Feature", "properties": { "id": "b3c586aa-6729-456c-b0e7-ec5ab96081cf", "name": "Dadiana Salon & Essentials", "category": "hair_salon", "address": "1485 E Valley Rd" }, "geometry": { "type": "Point", "coordinates": [ -119.632446448303526, 34.436699305817257 ] } },
{ "type": "Feature", "properties": { "id": "a20713d3-8e71-4abc-a8e5-003526c10b05", "name": "Blackline Partners, LLC", "category": "trusts", "address": "1485 E Valley Rd" }, "geometry": { "type": "Point", "coordinates": [ -119.632345, 34.436682 ] } },
{ "type": "Feature", "properties": { "id": "4287e0a7-cf8b-4030-8223-9261030cd909", "name": "U.S. Bank Branch", "category": "banks", "address": "1483 E Valley Rd" }, "geometry": { "type": "Point", "coordinates": [ -119.6324282, 34.4368879 ] } },
{ "type": "Feature", "properties": { "id": "ab68b3d5-7883-4792-abb5-5d5e98af5acc", "name": "Maison K", "category": "jewelry_store", "address": "1485 E Valley Rd" }, "geometry": { "type": "Point", "coordinates": [ -119.6324128, 34.4368824 ] } },
{ "type": "Feature", "properties": { "id": "849da133-2d45-4c63-ace9-a061a43f1e23", "name": "Mandana Montecito", "category": "clothing_store", "address": "1485 E Valley Rd" }, "geometry": { "type": "Point", "coordinates": [ -119.6324079, 34.4368759 ] } },
{ "type": "Feature", "properties": { "id": "cdc40a29-05ea-4cd4-adf6-0c7c9d3d4715", "name": "Proband Sports Industries", "category": "wholesale_store", "address": "1483 E Valley Rd" }, "geometry": { "type": "Point", "coordinates": [ -119.6324083, 34.4369549 ] } },
{ "type": "Feature", "properties": { "id": "14212da9-17f6-41a9-a834-ee7650214c8d", "name": "Village Frame & Gallery", "category": "art_gallery", "address": "1485 E Valley Rd" }, "geometry": { "type": "Point", "coordinates": [ -119.6325805, 34.4369487 ] } },
{ "type": "Feature", "properties": { "id": "3ae7d852-7ebd-4649-93dd-9c27ef6a3b87", "name": "805 Estate Staffing", "category": "business", "address": "1482 E Valley Rd #989" }, "geometry": { "type": "Point", "coordinates": [ -119.632816290892592, 34.437254230990561 ] } },
{ "type": "Feature", "properties": { "id": "da7e5f36-a648-4904-8e29-e130e21acd2d", "name": "RH Firehouse Grill at RH Montecito", "category": "restaurant", "address": "1486 East Valley Road" }, "geometry": { "type": "Point", "coordinates": [ -119.632772034970287, 34.4372529064077 ] } },
{ "type": "Feature", "properties": { "id": "ce477998-0a2f-4623-ae49-0a04e6461d5f", "name": "William Laman Furniture Garden Antiques", "category": "antique_store", "address": "1496 E Valley Rd" }, "geometry": { "type": "Point", "coordinates": [ -119.6325136, 34.4372261 ] } },
{ "type": "Feature", "properties": { "id": "947956b0-95d8-46c5-8a70-6eb068ec33a2", "name": "Coldwell Banker", "category": "real_estate_service", "address": "1498 E Valley Rd # B" }, "geometry": { "type": "Point", "coordinates": [ -119.632322242916317, 34.43724337060798 ] } },
{ "type": "Feature", "properties": { "id": "c5a40954-467a-4871-9d54-180cf3f7701b", "name": "Randy Solakian Estates Group", "category": "real_estate_agent", "address": "1498 E Valley Rd" }, "geometry": { "type": "Point", "coordinates": [ -119.6321784, 34.4372097 ] } },
{ "type": "Feature", "properties": { "id": "4846c7e2-a142-4cb4-8291-9c0596d645d8", "name": "Gazebo Flowers & Plants", "category": "florist", "address": "1505 E Valley Rd" }, "geometry": { "type": "Point", "coordinates": [ -119.631523, 34.436864 ] } },
{ "type": "Feature", "properties": { "id": "17d31773-93a9-4673-889a-22f7ff84b7e9", "name": "Specialized K-9 Services", "category": "dog_trainer", "address": null }, "geometry": { "type": "Point", "coordinates": [ -119.632104, 34.4366642 ] } },
{ "type": "Feature", "properties": { "id": "9063f80d-b500-49a6-82d7-a4522cc3b41b", "name": "Montecito Hot Springs", "category": "hiking_trail", "address": null }, "geometry": { "type": "Point", "coordinates": [ -119.6320737, 34.4366648 ] } },
{ "type": "Feature", "properties": { "id": "26a0e1eb-1961-4ace-9f88-9d4d136b9b4d", "name": "Montecito Wine Bistro", "category": "winery", "address": "516 San Ysidro Rd" }, "geometry": { "type": "Point", "coordinates": [ -119.631374360705522, 34.437483926083971 ] } },
{ "type": "Feature", "properties": { "id": "70baf9b3-2edf-438f-a631-06587d14b209", "name": "American Riviera Bank Montecito Branch", "category": "bank_credit_union", "address": "525 San Ysidro Rd" }, "geometry": { "type": "Point", "coordinates": [ -119.6320898, 34.4378304 ] } },
{ "type": "Feature", "properties": { "id": "80287510-831e-4ee4-a5ad-ece3c56efda9", "name": "Pierre Lafond Montecito", "category": "delicatessen", "address": "516 San Ysidro Rd" }, "geometry": { "type": "Point", "coordinates": [ -119.6316258, 34.4374318 ] } },
{ "type": "Feature", "properties": { "id": "262f9634-9d29-4bab-93b0-0d48fe4aef08", "name": "Montecito Deli Pierre Lafond", "category": "bakery", "address": "516 San Ysidro Rd" }, "geometry": { "type": "Point", "coordinates": [ -119.631563355737939, 34.437452086148447 ] } },
{ "type": "Feature", "properties": { "id": "9085a704-d67d-4de8-b7a3-f19c01ed8a33", "name": "Upstairs at Pierre Lafond", "category": "clothing_store", "address": "516 San Ysidro Rd" }, "geometry": { "type": "Point", "coordinates": [ -119.6316783, 34.4374553 ] } },
{ "type": "Feature", "properties": { "id": "7652e868-16c6-48b3-9296-28e506218c8a", "name": "Wendy Foster Montecito", "category": "womens_clothing_store", "address": "516 San Ysidro Rd" }, "geometry": { "type": "Point", "coordinates": [ -119.6317973, 34.4374734 ] } },
{ "type": "Feature", "properties": { "id": "d61f7a18-a789-4981-b5da-27868e35c4ef", "name": "San Ysidro Village", "category": "shopping_center", "address": "525 San Ysidro Rd" }, "geometry": { "type": "Point", "coordinates": [ -119.63253, 34.43762 ] } },
{ "type": "Feature", "properties": { "id": "ec21405f-54c3-402d-a7cf-3fbf27038cde", "name": "Julianne", "category": "womens_clothing_store", "address": "525 San Ysidro Rd" }, "geometry": { "type": "Point", "coordinates": [ -119.632530212402003, 34.4376220703125 ] } },
{ "type": "Feature", "properties": { "id": "9372f5ca-a61a-4a1b-867d-465cb5cf3818", "name": "Country House Antiques", "category": "antique_store", "address": "525 San Ysidro Rd" }, "geometry": { "type": "Point", "coordinates": [ -119.6324848, 34.4376113 ] } },
{ "type": "Feature", "properties": { "id": "c284ead2-c005-4413-b251-1a2159bb605a", "name": "Montecito Coffee Shop", "category": "american_restaurant", "address": "1498 E Valley Rd" }, "geometry": { "type": "Point", "coordinates": [ -119.6322273, 34.4373356 ] } },
{ "type": "Feature", "properties": { "id": "69457fcb-8b89-4b10-bb65-af8c53f7bb3c", "name": "San Ysidro Pharmacy", "category": "pharmacy", "address": "1498 E Valley Rd" }, "geometry": { "type": "Point", "coordinates": [ -119.632326406250598, 34.437377762521209 ] } },
{ "type": "Feature", "properties": { "id": "2bdab996-b84d-44af-a67d-8cf6c4afd735", "name": "Montecito Upper Village", "category": "shopping", "address": "1485 E Valley Rd" }, "geometry": { "type": "Point", "coordinates": [ -119.6327705, 34.4374012 ] } },
{ "type": "Feature", "properties": { "id": "507424f3-6151-4bc6-93d3-76801368b5ba", "name": "Shred Nations", "category": "shredding_services", "address": "525 San Ysidro Rd" }, "geometry": { "type": "Point", "coordinates": [ -119.6328252, 34.4377876 ] } },
{ "type": "Feature", "properties": { "id": "a07bfb73-ceed-4bda-9103-e9302fb71006", "name": "S R Hogue and Co Florist", "category": "flowers_and_gifts_shop", "address": "525 San Ysidro Rd" }, "geometry": { "type": "Point", "coordinates": [ -119.6326808, 34.4377084 ] } },
{ "type": "Feature", "properties": { "id": "0e50ba03-4a2d-45f5-99b3-156775867a34", "name": "American Riviera Bank", "category": "bank_credit_union", "address": "525 San Ysidro Rd" }, "geometry": { "type": "Point", "coordinates": [ -119.6324694, 34.4376965 ] } },
{ "type": "Feature", "properties": { "id": "698e0409-7295-4364-ae60-25bba9292f81", "name": "Jenni Kayne", "category": "womens_clothing_store", "address": "525 San Ysidro Rd" }, "geometry": { "type": "Point", "coordinates": [ -119.6324311, 34.4378273 ] } },
{ "type": "Feature", "properties": { "id": "e7920372-1a9e-4825-b33e-46cd237e23ac", "name": "Lost Horizon Bookstore", "category": "bookstore", "address": "539 San Ysidro Rd" }, "geometry": { "type": "Point", "coordinates": [ -119.6324807, 34.4380036 ] } },
{ "type": "Feature", "properties": { "id": "ec4db88e-bac1-4349-9f29-efd4a8611180", "name": "Athenaeum Capital Partners", "category": "investing", "address": "559 San Ysidro Rd" }, "geometry": { "type": "Point", "coordinates": [ -119.6325441, 34.4383292 ] } },
{ "type": "Feature", "properties": { "id": "d05f1ec6-bf6e-450c-9e92-b17cb8358d94", "name": "Next Health Montecito", "category": "beauty_and_spa", "address": "559 San Ysidro Rd" }, "geometry": { "type": "Point", "coordinates": [ -119.63265, 34.43835 ] } },
{ "type": "Feature", "properties": { "id": "9059272b-a642-4059-b404-d9505fe6d0d6", "name": "Herring Imming LLP", "category": "divorce_and_family_law", "address": "559 San Ysidro Rd" }, "geometry": { "type": "Point", "coordinates": [ -119.6326606, 34.4383207 ] } },
{ "type": "Feature", "properties": { "id": "7195e8d7-53d5-4bc0-adba-c5898cb11d5c", "name": "Montecito Law Group", "category": "wills_trusts_and_probate", "address": "559 San Ysidro Rd" }, "geometry": { "type": "Point", "coordinates": [ -119.6326933, 34.4382829 ] } },
{ "type": "Feature", "properties": { "id": "3faf7eb8-d482-43f2-91d1-3aef640406fe", "name": "Village Automotive", "category": "automotive_repair", "address": "1464 E Valley Rd" }, "geometry": { "type": "Point", "coordinates": [ -119.6339724, 34.43935 ] } },
{ "type": "Feature", "properties": { "id": "3e137570-78e5-4bd1-b31c-c9768d053065", "name": "Village Auto Repair", "category": "brake_service_and_repair", "address": "1464 E Valley Rd" }, "geometry": { "type": "Point", "coordinates": [ -119.633814, 34.43899 ] } },
{ "type": "Feature", "properties": { "id": "86d170fc-5dcd-405d-a314-5ef7c9b198f0", "name": "House of Honey", "category": "interior_design", "address": "525 San Ysidro Rd" }, "geometry": { "type": "Point", "coordinates": [ -119.6330405, 34.4381069 ] } },
{ "type": "Feature", "properties": { "id": "6cbc0870-7a45-4040-afb3-a41d167df6e8", "name": "Pane E Vino Trattoria", "category": "italian_restaurant", "address": "1482 E Valley Rd" }, "geometry": { "type": "Point", "coordinates": [ -119.6334607, 34.4381901 ] } },
{ "type": "Feature", "properties": { "id": "a84522ba-1863-4681-9ec1-67a2cbfbbd9a", "name": "Skin Essentials", "category": "skin_care", "address": "1482 E Valley Rd" }, "geometry": { "type": "Point", "coordinates": [ -119.6335146, 34.4381834 ] } },
{ "type": "Feature", "properties": { "id": "50389348-8707-405c-bc31-033378bb4b83", "name": "Montecito Village Grocery", "category": "supermarket", "address": "1482 E Valley Rd" }, "geometry": { "type": "Point", "coordinates": [ -119.6337186, 34.4381926 ] } },
{ "type": "Feature", "properties": { "id": "c7e86a07-dae5-49d3-9c6d-c1f25f805d06", "name": "MERRAG", "category": "community_services_non_profits", "address": "595 San Ysidro Rd" }, "geometry": { "type": "Point", "coordinates": [ -119.6330468, 34.4398456 ] } },
{ "type": "Feature", "properties": { "id": "cd8d3f83-b56b-4d53-9529-d01c71d82c83", "name": "Montecito Fire", "category": "fire_department", "address": "595 San Ysidro Rd" }, "geometry": { "type": "Point", "coordinates": [ -119.6330549, 34.4398496 ] } },
{ "type": "Feature", "properties": { "id": "e4b45637-a20e-42bc-85a6-a80db7c98f9e", "name": "Val Verde", "category": "landmark_and_historical_building", "address": "2549 Sycamore Canyon Rd" }, "geometry": { "type": "Point", "coordinates": [ -119.649571, 34.440787 ] } },
{ "type": "Feature", "properties": { "id": "db8ce672-30ea-4de2-ae65-a2956adfdfc9", "name": "El Fureidis", "category": "landmark_and_historical_building", "address": "631 Parra Grande Ln" }, "geometry": { "type": "Point", "coordinates": [ -119.6466828, 34.4403035 ] } },
{ "type": "Feature", "properties": { "id": "6f2a3487-2124-4c3b-b891-2e8e1b5e6e0e", "name": "\"El Fureidis\" (Scarface's Mansion)", "category": "community_services_non_profits", "address": "631 Parra Grande Ln" }, "geometry": { "type": "Point", "coordinates": [ -119.6468159, 34.4403418 ] } },
{ "type": "Feature", "properties": { "id": "f29773a7-0edd-45ce-9779-7e3c3071fab2", "name": "Our Lady of Mount Carmel School, Santa Barbara, CA", "category": "high_school", "address": "530 Hot Springs Rd" }, "geometry": { "type": "Point", "coordinates": [ -119.6411636, 34.436368 ] } },
{ "type": "Feature", "properties": { "id": "f41ee33d-2880-4581-a84b-1e7836074b21", "name": "Our Lady of Mount Carmel Church", "category": "catholic_church", "address": "1300 E Valley Rd" }, "geometry": { "type": "Point", "coordinates": [ -119.6412286, 34.436344 ] } },
{ "type": "Feature", "properties": { "id": "718f7361-9981-4200-9ef2-358f36c75b7f", "name": "Zilles Architecture Group", "category": "architectural_designer", "address": "1284 E Valley Rd" }, "geometry": { "type": "Point", "coordinates": [ -119.642516, 34.436201 ] } },
{ "type": "Feature", "properties": { "id": "50023ed6-8405-42d5-a191-f08a3270eb1b", "name": "Diplomatt of California", "category": "translation_services", "address": "500 Meadow Wood Ln" }, "geometry": { "type": "Point", "coordinates": [ -119.647385129769418, 34.436278608901418 ] } },
{ "type": "Feature", "properties": { "id": "fcb25f59-6090-4441-9338-b5a66d701056", "name": "Hale Park", "category": "park", "address": "201 Eucalyptus Hill Dr" }, "geometry": { "type": "Point", "coordinates": [ -119.6565917, 34.4341467 ] } },
{ "type": "Feature", "properties": { "id": "9cc45a98-689b-48ff-8c24-6a296a37d811", "name": "Brooks Institute of Photography", "category": "event_photography", "address": "801 Alston Rd" }, "geometry": { "type": "Point", "coordinates": [ -119.65542, 34.43186 ] } },
{ "type": "Feature", "properties": { "id": "7807bc59-9b26-4e01-b7f0-09fd3caf8399", "name": "Montecito Fire Department Station No. 2", "category": "fire_department", "address": "2300 Sycamore Canyon Rd" }, "geometry": { "type": "Point", "coordinates": [ -119.6595068, 34.4404289 ] } },
{ "type": "Feature", "properties": { "id": "495fde90-fc23-4e4e-936e-8364ec62e3b6", "name": "Cold Spring School District", "category": "elementary_school", "address": "2243 Sycamore Canyon Rd" }, "geometry": { "type": "Point", "coordinates": [ -119.6611249, 34.4410758 ] } },
{ "type": "Feature", "properties": { "id": "6f785802-56b5-4ba3-860d-6b9c55ae345a", "name": "Lotusland", "category": "botanical_garden", "address": "695 Ashley Rd" }, "geometry": { "type": "Point", "coordinates": [ -119.6587198, 34.4427546 ] } },
{ "type": "Feature", "properties": { "id": "26ef9f05-d3d8-42a7-bd32-2fde7609d012", "name": "Ganna Walska Lotusland", "category": "museum", "address": "695 Ashley Rd" }, "geometry": { "type": "Point", "coordinates": [ -119.657750074456715, 34.442998622312501 ] } },
{ "type": "Feature", "properties": { "id": "6bd885de-27c0-4202-b869-431fc4c7d09a", "name": "Montecito Covenant Church", "category": "church_cathedral", "address": "671 Cold Springs Rd" }, "geometry": { "type": "Point", "coordinates": [ -119.6593009, 34.4431984 ] } },
{ "type": "Feature", "properties": { "id": "3ec53c3b-7588-40fe-86b2-d3066928cd50", "name": "Ganna Walska Lotusland", "category": "museum", "address": "695 Ashley Rd" }, "geometry": { "type": "Point", "coordinates": [ -119.6582296, 34.4437037 ] } },
{ "type": "Feature", "properties": { "id": "f0540634-362d-40ce-88d5-b5630b85ddb0", "name": "African Women Rising", "category": "community_services_non_profits", "address": "801 Cold Springs Rd" }, "geometry": { "type": "Point", "coordinates": [ -119.6588314, 34.4450702 ] } },
{ "type": "Feature", "properties": { "id": "e2055504-0398-4778-845c-eb2694c63f30", "name": "ACME Detection", "category": "contractor", "address": "1081 E Mountain Dr" }, "geometry": { "type": "Point", "coordinates": [ -119.6502373, 34.4487141 ] } },
{ "type": "Feature", "properties": { "id": "e6f84583-ea7a-4514-9ab9-50cbce52b4fb", "name": "Montecito Peak Hike", "category": "hiking_trail", "address": "East Mountain Dr" }, "geometry": { "type": "Point", "coordinates": [ -119.644808, 34.448644 ] } },
{ "type": "Feature", "properties": { "id": "dab33324-b2cd-4d15-87a0-6b7708e73ebf", "name": "Hot Springs Trail", "category": "natural_hot_springs", "address": null }, "geometry": { "type": "Point", "coordinates": [ -119.6458247, 34.4492223 ] } },
{ "type": "Feature", "properties": { "id": "1bed7e09-e363-46cd-931c-6ad348d413a4", "name": "Murchison Gym", "category": "chemical_plant", "address": null }, "geometry": { "type": "Point", "coordinates": [ -119.6623281, 34.4481498 ] } },
{ "type": "Feature", "properties": { "id": "adc23e85-e91b-415b-80eb-09686e5be1d8", "name": "Westmont College", "category": "college_university", "address": "955 La Paz Rd" }, "geometry": { "type": "Point", "coordinates": [ -119.6613214, 34.4503741 ] } },
{ "type": "Feature", "properties": { "id": "c5d02304-4c55-4386-bc4e-4ff88937b22f", "name": "Kerrwood Hall", "category": "campus_building", "address": "955 La Paz Rd" }, "geometry": { "type": "Point", "coordinates": [ -119.661575671201135, 34.450323435061541 ] } },
{ "type": "Feature", "properties": { "id": "41d5e447-7c32-4385-9b58-8d3d21c04a94", "name": "Westmont Ridley-Tree Museum of Art", "category": "art_museum", "address": "955 La Paz Rd" }, "geometry": { "type": "Point", "coordinates": [ -119.662, 34.4499233 ] } },
{ "type": "Feature", "properties": { "id": "f3628bd8-7b03-45ff-88ea-44e0696c70ef", "name": "Roger John Voskuyl Library", "category": "library", "address": "955 La Paz Rd" }, "geometry": { "type": "Point", "coordinates": [ -119.6624635, 34.4500914 ] } },
{ "type": "Feature", "properties": { "id": "0ef508e4-0f61-4325-9ce0-e8eab7d16431", "name": "Armington Halls", "category": "pet_store", "address": "955 La Paz Rd" }, "geometry": { "type": "Point", "coordinates": [ -119.662474, 34.450282 ] } },
{ "type": "Feature", "properties": { "id": "96c7881a-8b9f-4af4-964e-52c0bae4ee8a", "name": "Russell Carr Field", "category": "baseball_field", "address": "955 La Paz Rd" }, "geometry": { "type": "Point", "coordinates": [ -119.661546182209023, 34.45163680463785 ] } },
{ "type": "Feature", "properties": { "id": "d59faa8f-c3f5-4419-9a50-d5c3d2e84993", "name": "Dining Commons", "category": "cafeteria", "address": "955 La Paz Rd" }, "geometry": { "type": "Point", "coordinates": [ -119.661546182209023, 34.45163680463785 ] } },
{ "type": "Feature", "properties": { "id": "b47e59c9-4357-4cb0-873e-74346ccd4c2a", "name": "Hugh R. Murchison Physical Education Complex", "category": "gym", "address": "955 La Paz Rd" }, "geometry": { "type": "Point", "coordinates": [ -119.661546182209023, 34.45163680463785 ] } },
{ "type": "Feature", "properties": { "id": "3acc6878-96c0-49c1-b6e9-437645541977", "name": "UPS Authorized Shipping Outlet", "category": "courier_and_delivery_services", "address": "955 La Paz Rd" }, "geometry": { "type": "Point", "coordinates": [ -119.66045, 34.451347 ] } },
{ "type": "Feature", "properties": { "id": "a79a6f68-148b-42cc-9bfb-4ba8262f5180", "name": "Clark Halls", "category": "accommodation", "address": "955 La Paz Rd" }, "geometry": { "type": "Point", "coordinates": [ -119.6602757, 34.4512761 ] } },
{ "type": "Feature", "properties": { "id": "462e4232-feda-464c-9d81-fbf894ae7901", "name": "Marissa Daisy", "category": "event_photography", "address": "955 La Paz Rd" }, "geometry": { "type": "Point", "coordinates": [ -119.6607, 34.45219 ] } },
{ "type": "Feature", "properties": { "id": "3af5d560-22b9-46cb-9130-7f4644474a53", "name": "Deane School Chapel", "category": "religious_organization", "address": "955 La Paz Rd" }, "geometry": { "type": "Point", "coordinates": [ -119.6607, 34.45219 ] } },
{ "type": "Feature", "properties": { "id": "c6d529be-bf03-4d57-9140-dfa3e4bdae89", "name": "Integration Hypnotherapy", "category": "naturopathic_holistic", "address": "261 E Mountain Dr" }, "geometry": { "type": "Point", "coordinates": [ -119.6652073, 34.4516612 ] } },
{ "type": "Feature", "properties": { "id": "e307e618-5b3f-47cb-a24c-b5900cf2fa86", "name": "Area 51 Musical Service", "category": "arts_and_entertainment", "address": "742 Coyote Rd" }, "geometry": { "type": "Point", "coordinates": [ -119.668118, 34.449784 ] } },
{ "type": "Feature", "properties": { "id": "dc5a5aca-20fe-4a5a-ae16-04d2587ef37d", "name": "Russell Carr Field", "category": "baseball_field", "address": "955 La Paz Rd" }, "geometry": { "type": "Point", "coordinates": [ -119.6638734, 34.4486754 ] } },
{ "type": "Feature", "properties": { "id": "0b7c9179-19b4-47d6-ad2a-bcdd647c4de1", "name": "Westmont Bookstore", "category": "bookstore", "address": "955 La Paz Rd" }, "geometry": { "type": "Point", "coordinates": [ -119.6632747, 34.4477153 ] } },
{ "type": "Feature", "properties": { "id": "20955f2d-f969-42b9-ae86-854bafc90bfa", "name": "Bon Apptit at Westmont College", "category": "restaurant", "address": "955 La Paz Rd" }, "geometry": { "type": "Point", "coordinates": [ -119.6632747, 34.4477153 ] } },
{ "type": "Feature", "properties": { "id": "c6084f43-dec9-42fd-99ef-e21527ea25fd", "name": "Thomas Neches & Co - Thomas M Neches CPA", "category": "accountant", "address": "724 Westmont Rd" }, "geometry": { "type": "Point", "coordinates": [ -119.6668746, 34.4456829 ] } },
{ "type": "Feature", "properties": { "id": "c34607e1-94b0-4ea1-9565-181a6beaf488", "name": "Dayal Studio Inc.", "category": "music_production", "address": "306 Sherman Rd" }, "geometry": { "type": "Point", "coordinates": [ -119.679072, 34.446012 ] } },
{ "type": "Feature", "properties": { "id": "773a3b64-9131-4bec-8428-f86dba1c392b", "name": "Pacific Structural & Forensic Engineers Group", "category": "building_supply_store", "address": "498 Conejo Rd" }, "geometry": { "type": "Point", "coordinates": [ -119.676288183530019, 34.442710062803805 ] } },
{ "type": "Feature", "properties": { "id": "a7072f83-cf67-4680-90b3-2bc5269f551d", "name": "Aloes in Wonderland", "category": "botanical_garden", "address": "114 Conejo Rd" }, "geometry": { "type": "Point", "coordinates": [ -119.681739, 34.4433778 ] } },
{ "type": "Feature", "properties": { "id": "e9a0e5b3-698d-43d4-a480-34cd99e8f075", "name": "Leadership Services", "category": "professional_services", "address": "219 Conejo Rd" }, "geometry": { "type": "Point", "coordinates": [ -119.682771, 34.444797 ] } },
{ "type": "Feature", "properties": { "id": "2161519a-88fc-4d79-ba83-04f92c7ca32d", "name": "California State Route 192", "category": "landmark_and_historical_building", "address": null }, "geometry": { "type": "Point", "coordinates": [ -119.68008, 34.44681 ] } },
{ "type": "Feature", "properties": { "id": "1e93097b-e66d-4982-8bac-3d5edef12dc8", "name": "Parma Park", "category": "park", "address": "2120 Stanwood Dr" }, "geometry": { "type": "Point", "coordinates": [ -119.6831228, 34.4476734 ] } },
{ "type": "Feature", "properties": { "id": "91f9a340-57c1-4de2-b423-9fab621eba46", "name": "Jian Tools For Sales", "category": "home_improvement_store", "address": "401 El Cielito Rd" }, "geometry": { "type": "Point", "coordinates": [ -119.693491992651133, 34.451597158309845 ] } },
{ "type": "Feature", "properties": { "id": "c21a6d29-fc2b-42f1-90d5-d3faaec33720", "name": "Santa Barbara Tennis Club", "category": "tennis_court", "address": "2375 Foothill Rd" }, "geometry": { "type": "Point", "coordinates": [ -119.7069073, 34.4455399 ] } },
{ "type": "Feature", "properties": { "id": "bec600bb-8a91-4471-a94d-918cfec4ed03", "name": "Avrick Direct", "category": "advertising_agency", "address": "1021 Tremonto Rd" }, "geometry": { "type": "Point", "coordinates": [ -119.706932696545053, 34.444039873308469 ] } },
{ "type": "Feature", "properties": { "id": "6d456ecd-a856-427f-b900-c224bc4acb18", "name": "Ayan Tour and Travels Siliguri", "category": "lounge", "address": "898-700 Midvale Ln, San Jose, CA 95136" }, "geometry": { "type": "Point", "coordinates": [ -119.705518484115615, 34.444061159419064 ] } },
{ "type": "Feature", "properties": { "id": "1db91f4a-a926-4268-8ef6-f6bd548cf6f5", "name": "Cold Springs Landscapes", "category": "building_supply_store", "address": "1809 Hillcrest Rd" }, "geometry": { "type": "Point", "coordinates": [ -119.69651261959379, 34.444526564602313 ] } },
{ "type": "Feature", "properties": { "id": "f934991c-b806-450d-b822-81c42e85e8f4", "name": "Sheffield Reservoir", "category": "park", "address": "530 Mountain Dr #490" }, "geometry": { "type": "Point", "coordinates": [ -119.694486, 34.4457891 ] } },
{ "type": "Feature", "properties": { "id": "ab29b1bb-d912-4bdf-9e22-633c9e7831fd", "name": "Tiki Cat Lounge", "category": "lounge", "address": null }, "geometry": { "type": "Point", "coordinates": [ -119.6865006, 34.4395447 ] } },
{ "type": "Feature", "properties": { "id": "cac97668-69bf-431f-8cb1-d2e91362696b", "name": "Heaven", "category": "hair_salon", "address": "830 Arbolado Rd" }, "geometry": { "type": "Point", "coordinates": [ -119.687076376933618, 34.438204699642974 ] } },
{ "type": "Feature", "properties": { "id": "51179cd8-7ba6-4ae7-9ecf-2ce44202d5b0", "name": "Sylvan Park", "category": "park", "address": "1321 Dover Rd" }, "geometry": { "type": "Point", "coordinates": [ -119.6937578, 34.4377985 ] } },
{ "type": "Feature", "properties": { "id": "0cb2e962-fa8d-45c3-aa1a-dc9aedd3c2bb", "name": "Santa Barbara Middle School", "category": "middle_school", "address": "1321 Alameda Padre Serra" }, "geometry": { "type": "Point", "coordinates": [ -119.6948687, 34.4370379 ] } },
{ "type": "Feature", "properties": { "id": "b2c7ef8f-cc4a-4f16-940c-e6dad93952bd", "name": "Brooks Institute of Photography Jefferson Campus", "category": "professional_services", "address": "1321 Alameda Padre Serra" }, "geometry": { "type": "Point", "coordinates": [ -119.6948017, 34.4369263 ] } },
{ "type": "Feature", "properties": { "id": "70db1ab4-f6a7-4953-923f-79bc6c52f974", "name": "Franceschi Park", "category": "park", "address": "1510 Mission Ridge Rd" }, "geometry": { "type": "Point", "coordinates": [ -119.694493, 34.4402791 ] } },
{ "type": "Feature", "properties": { "id": "3c47d830-89c9-4b08-89eb-da6164e6985b", "name": "Architecture J.A.", "category": "architectural_designer", "address": "2296 Las Tunas Rd" }, "geometry": { "type": "Point", "coordinates": [ -119.7070009, 34.4409678 ] } },
{ "type": "Feature", "properties": { "id": "c6ad4edd-3e66-4982-b207-4762eff85ea9", "name": "Santa Barbara Magazine", "category": "topic_publisher", "address": "2064 Alameda Padre Serra" }, "geometry": { "type": "Point", "coordinates": [ -119.7056739, 34.4397451 ] } },
{ "type": "Feature", "properties": { "id": "d666814a-ce49-428f-bc5d-c232f771d63a", "name": "The Weiser Agency", "category": "insurance_agency", "address": "2064 Alameda Padre Serra" }, "geometry": { "type": "Point", "coordinates": [ -119.7057875, 34.4397907 ] } },
{ "type": "Feature", "properties": { "id": "1b2ba495-9882-4ba3-8d23-9d860957a4ae", "name": "Hospice of Santa Barbara", "category": "hospice", "address": "2050 Alameda Padre Serra" }, "geometry": { "type": "Point", "coordinates": [ -119.7065035, 34.4396002 ] } },
{ "type": "Feature", "properties": { "id": "bd09ae8a-6fff-4332-8dc4-42d6cbd37b52", "name": "Visionary Solutions", "category": "professional_services", "address": "2060 Alameda Padre Serra" }, "geometry": { "type": "Point", "coordinates": [ -119.7066533, 34.4395824 ] } },
{ "type": "Feature", "properties": { "id": "0568f6c1-69c1-453d-a4a0-182496cdc4ac", "name": "ALT LLC", "category": "engineering_services", "address": "2062 Alameda Padre Serra" }, "geometry": { "type": "Point", "coordinates": [ -119.7051625, 34.4397581 ] } },
{ "type": "Feature", "properties": { "id": "ad3c871f-bbed-44a9-8e9a-63f0919a5696", "name": "The Dining Room at El Encanto", "category": "restaurant", "address": "El Encanto, 800 Alvarado Pl" }, "geometry": { "type": "Point", "coordinates": [ -119.7042662, 34.438882 ] } },
{ "type": "Feature", "properties": { "id": "76065496-543b-41e9-bccd-e630a0506826", "name": "The Spa at El Encanto", "category": "spas", "address": "800 Alvarado Pl" }, "geometry": { "type": "Point", "coordinates": [ -119.7041339, 34.4389329 ] } },
{ "type": "Feature", "properties": { "id": "f99d3e3e-93d8-44e2-8508-0f2466d3c4bd", "name": "Santa Barbara Riviera", "category": "landmark_and_historical_building", "address": null }, "geometry": { "type": "Point", "coordinates": [ -119.7041432, 34.4389793 ] } },
{ "type": "Feature", "properties": { "id": "a1ff02fa-fee2-4338-96a0-20b43bbc15b3", "name": "Take 5 Bodywork", "category": "massage", "address": "2020 Alameda Padre Serra" }, "geometry": { "type": "Point", "coordinates": [ -119.7047908, 34.439332 ] } },
{ "type": "Feature", "properties": { "id": "761b2c1b-6a27-4782-a589-fc9f7622ed70", "name": "Edward Jones - Financial Advisor: Morgan Cherner", "category": "financial_service", "address": "2020 Alameda Padre Serra Ste 200" }, "geometry": { "type": "Point", "coordinates": [ -119.704877720211499, 34.439258183543714 ] } },
{ "type": "Feature", "properties": { "id": "554511b3-56a7-4146-b2e0-442f216a80fb", "name": "Jackie Toth, Licensed Psychotherapist", "category": "psychotherapist", "address": "2020 Alameda Padre Serra" }, "geometry": { "type": "Point", "coordinates": [ -119.7049097, 34.4390719 ] } },
{ "type": "Feature", "properties": { "id": "0f627199-35da-469c-884b-82d3c0b16d93", "name": "Ultimate Property Management", "category": "property_management", "address": "2020 Alameda Padre Serra" }, "geometry": { "type": "Point", "coordinates": [ -119.7048078, 34.439062 ] } },
{ "type": "Feature", "properties": { "id": "d6b0eae2-23d4-4c31-a766-2a8942386132", "name": "El Encanto", "category": "hotel", "address": "800 Alvarado Pl" }, "geometry": { "type": "Point", "coordinates": [ -119.7044259, 34.4390492 ] } },
{ "type": "Feature", "properties": { "id": "115ec942-5694-4466-a47c-bd248959c1e0", "name": "Belmond El Encanto", "category": "hotel", "address": "800 Alvarado Pl" }, "geometry": { "type": "Point", "coordinates": [ -119.704302, 34.438881 ] } },
{ "type": "Feature", "properties": { "id": "8a64145c-2187-41fb-9321-b161c1c460a2", "name": "Belmond El Encanto", "category": "resort", "address": "800 Alvarado Pl" }, "geometry": { "type": "Point", "coordinates": [ -119.7047, 34.4388692 ] } },
{ "type": "Feature", "properties": { "id": "9be40335-c373-4ba2-bd03-089a7c7087a0", "name": "Edward Jones - Financial Advisor: Derek L Pacheco", "category": "financial_service", "address": "2020 Alameda Padre Serra Ste 200" }, "geometry": { "type": "Point", "coordinates": [ -119.70494068412448, 34.439019760953379 ] } },
{ "type": "Feature", "properties": { "id": "ebd4a2b6-dd96-4c45-8bcb-e8006e080b9d", "name": "Expond", "category": "information_technology_company", "address": "2020 Alameda Padre Serra Ste 200" }, "geometry": { "type": "Point", "coordinates": [ -119.7051976, 34.4388315 ] } },
{ "type": "Feature", "properties": { "id": "b1d69244-9021-4785-9b4a-6c024c5ed66b", "name": "Riviera Park Gardens", "category": "park", "address": "2030 Alameda Padre Serra" }, "geometry": { "type": "Point", "coordinates": [ -119.70558, 34.439158 ] } },
{ "type": "Feature", "properties": { "id": "94f5e3a2-db17-4210-9784-57b8c2edfc96", "name": "Blue Horizon Management Company", "category": "property_management", "address": "2020 Alameda Padre Serra Ste 220" }, "geometry": { "type": "Point", "coordinates": [ -119.70519, 34.43907 ] } },
{ "type": "Feature", "properties": { "id": "f5d7f550-cf22-4e07-9160-fc01f4a6a954", "name": "Horny Toad Activewear", "category": "clothing_store", "address": "2020 Alameda Padre Serra Ste 125" }, "geometry": { "type": "Point", "coordinates": [ -119.705581733051844, 34.439225287776075 ] } },
{ "type": "Feature", "properties": { "id": "52a8ca3c-75dd-45a0-9ed6-a06c38f4bcf3", "name": "Granada Theater", "category": "theatre", "address": "2020 Alameda Padre Serra" }, "geometry": { "type": "Point", "coordinates": [ -119.705582, 34.439225 ] } },
{ "type": "Feature", "properties": { "id": "b828e8b7-b69e-4940-812f-55607c525245", "name": "Wiser Capital", "category": "hvac_services", "address": "2020 Alameda Padre Serra" }, "geometry": { "type": "Point", "coordinates": [ -119.706071, 34.439101 ] } },
{ "type": "Feature", "properties": { "id": "bde9c743-21cd-4a93-9261-768174bced6e", "name": "Andrulaitis Mixon Architects", "category": "architectural_designer", "address": "2040 Alameda Padre Serra" }, "geometry": { "type": "Point", "coordinates": [ -119.7066734, 34.4389038 ] } },
{ "type": "Feature", "properties": { "id": "561382f3-a1e1-41a5-9b7d-131a50bbbfe7", "name": "Wilderness Youth Project", "category": "youth_organizations", "address": "2040 Alameda Padre Serra" }, "geometry": { "type": "Point", "coordinates": [ -119.7066784, 34.4389011 ] } },
{ "type": "Feature", "properties": { "id": "9dc3f0e6-daeb-4c38-895c-617bccef9552", "name": "Liberty Mutual Insurance", "category": "auto_insurance", "address": "2040 Alameda Padre Serra Ste 106" }, "geometry": { "type": "Point", "coordinates": [ -119.706672668457003, 34.438907623291001 ] } },
{ "type": "Feature", "properties": { "id": "934bc903-2825-4371-83c8-0c5128dc37e4", "name": "SBIFF Riviera Theatre", "category": "cinema", "address": "2044 Alameda Padre Serra" }, "geometry": { "type": "Point", "coordinates": [ -119.7070063, 34.4389387 ] } },
{ "type": "Feature", "properties": { "id": "c22cda0c-99da-4ba4-9141-b9b533985c38", "name": "Santa Barbara Zen Center", "category": "buddhist_temple", "address": "2050 Alameda Padre Serra" }, "geometry": { "type": "Point", "coordinates": [ -119.7066813, 34.4388604 ] } },
{ "type": "Feature", "properties": { "id": "9cbe8571-3b4b-4859-ab12-5f9129490bc3", "name": "Ontraport", "category": "software_development", "address": "2030 Alameda Padre Serra" }, "geometry": { "type": "Point", "coordinates": [ -119.7059286, 34.4388801 ] } },
{ "type": "Feature", "properties": { "id": "18443c76-5129-4412-a417-88d4bca3549e", "name": "Hillside Park", "category": "park", "address": "Alameda Padre Serra" }, "geometry": { "type": "Point", "coordinates": [ -119.7046274, 34.4382888 ] } },
{ "type": "Feature", "properties": { "id": "cf08ff96-13ef-4a03-ac73-a1d60c3dc29d", "name": "Orpet Park", "category": "park", "address": "824 Moreno Rd" }, "geometry": { "type": "Point", "coordinates": [ -119.7047785, 34.4378878 ] } },
{ "type": "Feature", "properties": { "id": "e33653ca-94b5-4bc7-bf59-2380c822c0ef", "name": "New York Street Candles", "category": "home_goods_store", "address": "1826 Loma St" }, "geometry": { "type": "Point", "coordinates": [ -119.7058294, 34.437095 ] } },
{ "type": "Feature", "properties": { "id": "84250fad-d6db-4962-a3ff-47ddae125fc3", "name": "Frog Wall", "category": "museum", "address": "1600 Paterna Rd" }, "geometry": { "type": "Point", "coordinates": [ -119.6990487, 34.4385311 ] } },
{ "type": "Feature", "properties": { "id": "13bd3eca-8443-4067-bb50-752a30304dba", "name": "Frog Farm", "category": "church_cathedral", "address": "1630 Paterna Rd" }, "geometry": { "type": "Point", "coordinates": [ -119.6995957, 34.4384139 ] } },
{ "type": "Feature", "properties": { "id": "bad567bf-3902-42e0-bbad-d2053522dad5", "name": "Energy Tattoo", "category": "tattoo_and_piercing", "address": "428 State St" }, "geometry": { "type": "Point", "coordinates": [ -119.7007451, 34.4347239 ] } },
{ "type": "Feature", "properties": { "id": "b13579c9-b67e-40d9-8cd1-cb5b09f0c165", "name": "Majestic Model 011", "category": "gym", "address": "11735 1/2 Grand Ave." }, "geometry": { "type": "Point", "coordinates": [ -119.704132, 34.435611 ] } },
{ "type": "Feature", "properties": { "id": "4f3929d8-2074-4e2c-959e-6f9918e03a04", "name": "Alchemy On Demand", "category": "public_relations", "address": "1774 Prospect Ave" }, "geometry": { "type": "Point", "coordinates": [ -119.705726623535156, 34.435497283935547 ] } },
{ "type": "Feature", "properties": { "id": "a5b9420a-5741-4048-bfbe-7c79f57f6ecd", "name": "Santa Barbara Sport Fishing", "category": "boat_rental_and_training", "address": "1762 Prospect Ave" }, "geometry": { "type": "Point", "coordinates": [ -119.705461, 34.435396 ] } },
{ "type": "Feature", "properties": { "id": "60ea76b3-ce5b-47c6-b2c8-bd8e5be24361", "name": "Dr. Brent Moelleken", "category": "plastic_surgeon", "address": "601 E Arrellaga St" }, "geometry": { "type": "Point", "coordinates": [ -119.70262, 34.43412 ] } },
{ "type": "Feature", "properties": { "id": "2bc31ef9-cd8e-4332-aace-8d0d2df2def3", "name": "Robert W. Sheffield, MD FACS - Plastic Surgery Santa Barbara", "category": "cosmetic_surgeon", "address": "601 E Arrellaga St #101" }, "geometry": { "type": "Point", "coordinates": [ -119.7026513, 34.4340918 ] } },
{ "type": "Feature", "properties": { "id": "938749a3-bd0e-45fa-98ab-8fa3d10cb30e", "name": "Pacheco-Medina Dental Corporation", "category": "dentist", "address": "601 E Arrellaga St" }, "geometry": { "type": "Point", "coordinates": [ -119.7026552, 34.4340074 ] } },
{ "type": "Feature", "properties": { "id": "a154fd48-1576-40c9-8bef-d26b8ac37bf4", "name": "Augusto Castaneda MD", "category": "doctor", "address": "601 E Arrellaga St" }, "geometry": { "type": "Point", "coordinates": [ -119.702675, 34.433991 ] } },
{ "type": "Feature", "properties": { "id": "28fe2720-1fe3-4400-9fcb-87c7576eeb93", "name": "Raymond J Johansen DMD Inc", "category": "dentist", "address": "601 E Arrellaga St" }, "geometry": { "type": "Point", "coordinates": [ -119.7026898, 34.4339974 ] } },
{ "type": "Feature", "properties": { "id": "731d5e94-5434-4941-adfa-19e08feae086", "name": "Full Spectrum Recovery Coaching", "category": "counseling_and_mental_health", "address": "601 E Arrellaga St" }, "geometry": { "type": "Point", "coordinates": [ -119.7027216, 34.4340352 ] } },
{ "type": "Feature", "properties": { "id": "def26164-c91a-441d-a151-341b9172fc4e", "name": "Kind Dermatology and Medical Spa", "category": "dermatologist", "address": "601 E Arrellaga St" }, "geometry": { "type": "Point", "coordinates": [ -119.7027269, 34.434044 ] } },
{ "type": "Feature", "properties": { "id": "8466ed9d-0215-4d8e-b85b-f889eef963b8", "name": "SB Aesthetics Medical Spa", "category": "day_spa", "address": "601 E Arrellaga St #101" }, "geometry": { "type": "Point", "coordinates": [ -119.7025686, 34.4339555 ] } },
{ "type": "Feature", "properties": { "id": "8a7baa46-0bbc-4321-829f-7b18c86a3549", "name": "Tona @ DCA", "category": "acupuncture", "address": "601 E Arrellaga St Ste 202" }, "geometry": { "type": "Point", "coordinates": [ -119.702514, 34.434052 ] } },
{ "type": "Feature", "properties": { "id": "220549cb-7c23-48ab-8c9e-439e395556ab", "name": "Neighborhood Acupuncture", "category": "acupuncture", "address": "601 E Arrellaga St" }, "geometry": { "type": "Point", "coordinates": [ -119.7024253, 34.4339976 ] } },
{ "type": "Feature", "properties": { "id": "0e6ddec8-ee3c-409a-bbd7-6b84df776059", "name": "Bella Riviera SB", "category": "real_estate", "address": "601 E Micheltorena St" }, "geometry": { "type": "Point", "coordinates": [ -119.701738, 34.433619 ] } },
{ "type": "Feature", "properties": { "id": "cf6ae612-499f-4fff-b0d2-c10bd41cd3b7", "name": "Thompson Michael W DDS", "category": "general_dentistry", "address": "536 E Arrellaga St Ste 104" }, "geometry": { "type": "Point", "coordinates": [ -119.702911, 34.43336 ] } },
{ "type": "Feature", "properties": { "id": "46c13f3f-8f44-40f8-ad45-d9e3ee03a868", "name": "Ferrel's Chiropractic", "category": "chiropractor", "address": "533 E Micheltorena St" }, "geometry": { "type": "Point", "coordinates": [ -119.7017795, 34.432541 ] } },
{ "type": "Feature", "properties": { "id": "8f863a92-3869-4bfd-b00d-23badccc7188", "name": "Coastal View Surgery", "category": "surgical_center", "address": "536 E Arrellaga St" }, "geometry": { "type": "Point", "coordinates": [ -119.7024891, 34.4329693 ] } },
{ "type": "Feature", "properties": { "id": "d7aa117f-8e5a-442a-a065-3cad5f93c8fd", "name": "Kendall, Rohde & Associates", "category": "dentist", "address": "536 E Arrellaga St" }, "geometry": { "type": "Point", "coordinates": [ -119.7025419, 34.4331535 ] } },
{ "type": "Feature", "properties": { "id": "9dabffcc-cef1-4afe-96c0-53f837858350", "name": "Santa Barbara Fertility Center", "category": "fertility", "address": "536 E Arrellaga St" }, "geometry": { "type": "Point", "coordinates": [ -119.7026023, 34.4331488 ] } },
{ "type": "Feature", "properties": { "id": "9780aacd-d940-400d-8ba5-19a21b502c10", "name": "Plastic Surgery and Hand Surgery Medical Clinic", "category": "plastic_surgeon", "address": "511 E Arrellaga St" }, "geometry": { "type": "Point", "coordinates": [ -119.7037228, 34.43288 ] } },
{ "type": "Feature", "properties": { "id": "3f8e55b8-88aa-474e-9911-7cdacc6acdab", "name": "Nancy J Madsen, Attorney & Mediator", "category": "legal_services", "address": "1714 Olive St" }, "geometry": { "type": "Point", "coordinates": [ -119.705623966332183, 34.43387446569627 ] } },
{ "type": "Feature", "properties": { "id": "a3527290-d82c-4884-b42d-f9a3614ab7d9", "name": "E Islay St", "category": "hotel", "address": "424 E Islay St" }, "geometry": { "type": "Point", "coordinates": [ -119.706603, 34.433548 ] } },
{ "type": "Feature", "properties": { "id": "b2842f1d-0bae-41e9-a852-167af90fc803", "name": "Santa Barbara, Montecito, Hope Ranch, Goleta and Carpenteria", "category": "real_estate_agent", "address": "418 E Islay St" }, "geometry": { "type": "Point", "coordinates": [ -119.706719, 34.433457 ] } },
{ "type": "Feature", "properties": { "id": "5de712f7-49e2-4e7e-89a4-52abc31bec9b", "name": "Chris Casebeer And Company", "category": "real_estate_agent", "address": "418 E Islay St" }, "geometry": { "type": "Point", "coordinates": [ -119.70671, 34.433428 ] } },
{ "type": "Feature", "properties": { "id": "1253ebed-db34-49b4-a704-b308981e6533", "name": "Fiber Seal of Santa Barbara", "category": "carpet_cleaning", "address": "421 E Valerio St" }, "geometry": { "type": "Point", "coordinates": [ -119.706019, 34.432981 ] } },
{ "type": "Feature", "properties": { "id": "4761ddf2-874e-447e-a63c-515d0b7b393c", "name": "Del Bonis Carpet Cleaning", "category": "carpet_store", "address": "421 E Valerio St" }, "geometry": { "type": "Point", "coordinates": [ -119.7061873, 34.4332105 ] } },
{ "type": "Feature", "properties": { "id": "f954dd0d-c043-4401-b7ca-54a54ff6f185", "name": "Alchemy On Demand", "category": "advertising_agency", "address": "1774 Prospect Ave" }, "geometry": { "type": "Point", "coordinates": [ -119.7060813, 34.4328555 ] } },
{ "type": "Feature", "properties": { "id": "68d195a5-8ec1-49cc-8d47-032272242ff8", "name": "Community Planet Foundation", "category": "community_services_non_profits", "address": "1611 Olive St" }, "geometry": { "type": "Point", "coordinates": [ -119.7044564, 34.432543 ] } },
{ "type": "Feature", "properties": { "id": "873c63d3-2144-4f78-84c1-046c3a5c3ac6", "name": "Tony Mac Photo Video", "category": "video_film_production", "address": "1615 Olive St Ste B" }, "geometry": { "type": "Point", "coordinates": [ -119.7047806, 34.4324379 ] } },
{ "type": "Feature", "properties": { "id": "3a2f43f1-ae8e-41f9-81ef-7fa0e4afe66e", "name": "Ben McWilliams DDS and Lee Neuenschwander DDS", "category": "dentist", "address": "515 E Micheltorena St" }, "geometry": { "type": "Point", "coordinates": [ -119.7023576, 34.4318746 ] } },
{ "type": "Feature", "properties": { "id": "1eb4b73b-0976-41ee-97e3-7c160b32cf04", "name": "Stuart R. Winthrop, MD, FACS", "category": "eye_care_clinic", "address": "515 E Micheltorena St" }, "geometry": { "type": "Point", "coordinates": [ -119.7024023, 34.4319541 ] } },
{ "type": "Feature", "properties": { "id": "2f2362bb-2ae0-4631-9919-15dd1a911e15", "name": "California Retina Consultants", "category": "optometrist", "address": "515 E Micheltorena St Ste C" }, "geometry": { "type": "Point", "coordinates": [ -119.702328308919576, 34.432211749855902 ] } },
{ "type": "Feature", "properties": { "id": "d718ce8d-a37c-4842-a4ec-104d18f667de", "name": "Eternity Health Partners", "category": "weight_loss_center", "address": "533 E Micheltorena St" }, "geometry": { "type": "Point", "coordinates": [ -119.7018013, 34.4323933 ] } },
{ "type": "Feature", "properties": { "id": "03106760-f872-48ad-a169-befd8a1a1576", "name": "Mosaic Therapy Collective", "category": "community_services_non_profits", "address": "533 E Micheltorena St" }, "geometry": { "type": "Point", "coordinates": [ -119.7017967, 34.4323801 ] } },
{ "type": "Feature", "properties": { "id": "e228cff0-6cf9-411a-b633-d9f9be4ed22c", "name": "Riviera Brewing Company", "category": "brewery", "address": "536 E Micheltorena St" }, "geometry": { "type": "Point", "coordinates": [ -119.7014978, 34.432343 ] } },
{ "type": "Feature", "properties": { "id": "b4580375-577f-4c0f-be98-845da677ad7f", "name": "Pueblo Radiology Med Group Inc", "category": "diagnostic_imaging", "address": "2320 Bath St #113" }, "geometry": { "type": "Point", "coordinates": [ -119.701408, 34.432642 ] } },
{ "type": "Feature", "properties": { "id": "af35438f-2dbe-48cb-ac75-adcb7fe7b9d1", "name": "Ingenious Style 011", "category": "gym", "address": "11018 W. Micheltorena" }, "geometry": { "type": "Point", "coordinates": [ -119.700374, 34.433334 ] } },
{ "type": "Feature", "properties": { "id": "9cd1c3a7-bca7-4475-b64b-0ad6a097b43e", "name": "Kirkpatrick & Associates", "category": "insurance_agency", "address": "731 E Micheltorena St" }, "geometry": { "type": "Point", "coordinates": [ -119.698213, 34.433819 ] } },
{ "type": "Feature", "properties": { "id": "ae3dff71-236a-4420-82e6-c2e77177f513", "name": "Heathers Country Cottage Preschool", "category": "preschool", "address": null }, "geometry": { "type": "Point", "coordinates": [ -119.69679, 34.43345 ] } },
{ "type": "Feature", "properties": { "id": "809098b4-27dd-4822-a100-a7a14911d723", "name": "Sycamore Apartments", "category": "landmark_and_historical_building", "address": "1120 N Nopal St" }, "geometry": { "type": "Point", "coordinates": [ -119.6947634, 34.4316101 ] } },
{ "type": "Feature", "properties": { "id": "3824151e-e744-462f-8ab4-3ecbb2cd9059", "name": "Patricia Calonne PhD", "category": "counseling_and_mental_health", "address": "741 E Anapamu St" }, "geometry": { "type": "Point", "coordinates": [ -119.69583, 34.431842 ] } },
{ "type": "Feature", "properties": { "id": "e1f8d469-5551-4373-be6e-9d57e5c93a6c", "name": "Nlovesbadges", "category": "womens_clothing_store", "address": null }, "geometry": { "type": "Point", "coordinates": [ -119.6945, 34.43185 ] } },
{ "type": "Feature", "properties": { "id": "27f466f9-f915-4037-a172-581a8f60a1e1", "name": "Smog-It", "category": "automotive_services_and_repair", "address": "836 E Anapamu St" }, "geometry": { "type": "Point", "coordinates": [ -119.694306313999746, 34.432442248263648 ] } },
{ "type": "Feature", "properties": { "id": "8b1d2ab8-6687-4055-b654-b65107bf36b6", "name": "Kennedy's Automotive", "category": "automotive_repair", "address": "836 E Anapamu St" }, "geometry": { "type": "Point", "coordinates": [ -119.694298500417943, 34.432451812974733 ] } },
{ "type": "Feature", "properties": { "id": "253945b0-05a9-4b7e-bed6-0c7f3feefd5b", "name": "The Rhythmic Arts Project", "category": "specialty_school", "address": "1115 N Milpas St" }, "geometry": { "type": "Point", "coordinates": [ -119.6938198, 34.4321507 ] } },
{ "type": "Feature", "properties": { "id": "8e2ed6d8-e9bf-4488-94d4-6a243bc3c934", "name": "Lily Guild", "category": "information_technology_company", "address": "935 E Carrillo Rd" }, "geometry": { "type": "Point", "coordinates": [ -119.690618537808959, 34.432017759148877 ] } },
{ "type": "Feature", "properties": { "id": "b970f5b5-c615-4e79-9f6d-c79f4489f992", "name": "Toddy's Christmas Trees", "category": "pop_up_shop", "address": "1122 N Milpas St" }, "geometry": { "type": "Point", "coordinates": [ -119.69374, 34.432612 ] } },
{ "type": "Feature", "properties": { "id": "700643eb-ac8d-4527-ac2b-dd12cd60637b", "name": "Dajen Productions", "category": "video_film_production", "address": "231 W Pedregosa St" }, "geometry": { "type": "Point", "coordinates": [ -119.69559, 34.43316 ] } },
{ "type": "Feature", "properties": { "id": "2d86f332-36aa-474f-98e7-edd10c4f0804", "name": "Urban-Equestrian", "category": "shopping", "address": "813 E Anapamu St" }, "geometry": { "type": "Point", "coordinates": [ -119.6954023, 34.4333084 ] } },
{ "type": "Feature", "properties": { "id": "d2e90932-720b-4696-af96-111eee51ddc2", "name": "Riviera Hills Apartments", "category": "landmark_and_historical_building", "address": "813 E Anapamu St" }, "geometry": { "type": "Point", "coordinates": [ -119.6954989, 34.4333058 ] } },
{ "type": "Feature", "properties": { "id": "d58559ec-9176-44e6-8c46-515d42943ffd", "name": "Santa Barbara Bowl", "category": "music_venue", "address": "1122 N Milpas St" }, "geometry": { "type": "Point", "coordinates": [ -119.6935775, 34.4350687 ] } },
{ "type": "Feature", "properties": { "id": "cc2bfd51-4aec-46e4-98cd-08839e569d9b", "name": "SBPlastering", "category": "painting", "address": "708 N Voluntario St" }, "geometry": { "type": "Point", "coordinates": [ -119.687279462814331, 34.431362986122849 ] } },
{ "type": "Feature", "properties": { "id": "33b18f7f-4f07-4f5f-b366-954ac0ca7ae7", "name": "Low Cost Plumbing", "category": "building_supply_store", "address": "615 Chiquita Rd" }, "geometry": { "type": "Point", "coordinates": [ -119.682441066473416, 34.432062047233856 ] } },
{ "type": "Feature", "properties": { "id": "daaaa145-79e7-43fb-9b49-d733b05f63d1", "name": "Edward the Fix It Guy Inc.", "category": "contractor", "address": "610 Alameda Padre Serra" }, "geometry": { "type": "Point", "coordinates": [ -119.6813451, 34.4328508 ] } },
{ "type": "Feature", "properties": { "id": "f5ad040a-3351-45eb-9d7f-1c68d89644d8", "name": "Jane Reaction Fitness", "category": "gym", "address": "410 Alameda Padre Serra" }, "geometry": { "type": "Point", "coordinates": [ -119.67845, 34.43118 ] } },
{ "type": "Feature", "properties": { "id": "11730d85-64e4-42bd-8ba1-d35c47c06a85", "name": "Georgene's 244 Las Alturas", "category": "mexican_restaurant", "address": "244 Las Alturas Rd" }, "geometry": { "type": "Point", "coordinates": [ -119.679155, 34.434293 ] } },
{ "type": "Feature", "properties": { "id": "72fac42b-2a01-4728-a21d-08983300737c", "name": "California State Route 144", "category": "landmark_and_historical_building", "address": null }, "geometry": { "type": "Point", "coordinates": [ -119.676229, 34.436797 ] } },
{ "type": "Feature", "properties": { "id": "a0e36aa9-a3a1-4694-9482-8515cac08adf", "name": "Keystone Recovery Network", "category": "rehabilitation_center", "address": "475 Barker Pass Rd" }, "geometry": { "type": "Point", "coordinates": [ -119.668140761697146, 34.439253345586607 ] } },
{ "type": "Feature", "properties": { "id": "efbf50e1-a597-4a73-b300-2c2043f4dbf0", "name": "Veterans United For Truth", "category": "community_services_non_profits", "address": "46 Nicholas Ln" }, "geometry": { "type": "Point", "coordinates": [ -119.669939, 34.43557 ] } },
{ "type": "Feature", "properties": { "id": "534ff0ea-4237-426e-9ae9-49a7e11193a5", "name": "On Top of Santa Barbara", "category": "mountain", "address": null }, "geometry": { "type": "Point", "coordinates": [ -119.6740529, 34.4322178 ] } },
{ "type": "Feature", "properties": { "id": "e4737163-651d-4ec4-ac89-4a249ec39608", "name": "Virginia Park, Santa Barbara, California", "category": "park", "address": null }, "geometry": { "type": "Point", "coordinates": [ -119.6641634, 34.4325509 ] } },
{ "type": "Feature", "properties": { "id": "026128ed-8253-4f66-b104-7f24d3f60f7a", "name": "Glamour House Intimate Apparel", "category": "lingerie_store", "address": "840 Deerpath Rd" }, "geometry": { "type": "Point", "coordinates": [ -119.6653274, 34.4325191 ] } },
{ "type": "Feature", "properties": { "id": "e2e1705b-d86c-4057-95b7-bc3650dca4d1", "name": "Woodland Park Estates Santa Barbara California", "category": "park", "address": "Woodland Park Estates Santa Barbara California" }, "geometry": { "type": "Point", "coordinates": [ -119.664324, 34.431294 ] } },
{ "type": "Feature", "properties": { "id": "21643076-3c11-4525-9777-7ad90dad14ce", "name": "Cleveland Elementary School", "category": "elementary_school", "address": "123 Alameda Padre Serra" }, "geometry": { "type": "Point", "coordinates": [ -119.6715052, 34.4287599 ] } },
{ "type": "Feature", "properties": { "id": "39115523-d1e9-43a0-9645-0903efe3781e", "name": "Santa Barbara Hot Spots", "category": "hotel", "address": "1410 Clifton St" }, "geometry": { "type": "Point", "coordinates": [ -119.672401, 34.426675 ] } },
{ "type": "Feature", "properties": { "id": "8cd1b77d-3715-44c4-9121-d1f8c9584c95", "name": "Santa Barbara Tours a la Carte", "category": "limo_services", "address": "2 Oak St" }, "geometry": { "type": "Point", "coordinates": [ -119.67405, 34.42635 ] } },
{ "type": "Feature", "properties": { "id": "64ec30d3-3343-4ef6-822c-19bfa3739f28", "name": "Scent From Heaven", "category": "nutritionist", "address": null }, "geometry": { "type": "Point", "coordinates": [ -119.6736393, 34.4264054 ] } },
{ "type": "Feature", "properties": { "id": "c31e9a6e-751c-4633-baae-fe3f6aef0a4f", "name": "Infinity Jars", "category": "retail", "address": "1922 Palma Drive" }, "geometry": { "type": "Point", "coordinates": [ -119.6736393, 34.4264054 ] } },
{ "type": "Feature", "properties": { "id": "1ae0f81e-5d73-48b4-8f19-f7cfbe9ed0cf", "name": "Santa Barbara's Paving Stone People", "category": "artificial_turf", "address": "129 Santa Ynez St" }, "geometry": { "type": "Point", "coordinates": [ -119.6701742, 34.4259661 ] } },
{ "type": "Feature", "properties": { "id": "317c7db3-19a5-46a8-bdb9-6c621139300c", "name": "Willow Street Films", "category": "wedding_planning", "address": "474 Scenic Dr" }, "geometry": { "type": "Point", "coordinates": [ -119.6645882, 34.4252468 ] } },
{ "type": "Feature", "properties": { "id": "a2b2eb91-b777-4cdb-830e-6d399ce64ecf", "name": "Steven Gratigny Electric", "category": "electrician", "address": "66 ocean view Ave" }, "geometry": { "type": "Point", "coordinates": [ -119.666508, 34.425331 ] } },
{ "type": "Feature", "properties": { "id": "0da7674d-d3f5-46e3-be92-7bc9d7ddf775", "name": "TV Santa Barbara", "category": "community_services_non_profits", "address": "329 S Salinas St" }, "geometry": { "type": "Point", "coordinates": [ -119.6685287, 34.4235634 ] } },
{ "type": "Feature", "properties": { "id": "f964a6e3-e350-4425-b33a-2dcebddd47ec", "name": "Camerata Pacifica", "category": "theatre", "address": "333 S Salinas St" }, "geometry": { "type": "Point", "coordinates": [ -119.6685417, 34.4234753 ] } },
{ "type": "Feature", "properties": { "id": "e166c97f-ef1b-4829-b385-807f4667c03d", "name": "American European Bethel Mission", "category": "religious_organization", "address": "335 S Salinas St" }, "geometry": { "type": "Point", "coordinates": [ -119.6683391, 34.4233786 ] } },
{ "type": "Feature", "properties": { "id": "bc238e56-7941-42fa-abe3-d19354b810e6", "name": "Muoz's Auto Repair", "category": "automotive_repair", "address": "401 Old Coast Hwy" }, "geometry": { "type": "Point", "coordinates": [ -119.6680882, 34.4232536 ] } },
{ "type": "Feature", "properties": { "id": "551edd2a-682e-44df-8b51-500bf2bac437", "name": "Santa Barbara Municipal Tennis Courts", "category": "tennis_court", "address": "1414 Park Pl" }, "geometry": { "type": "Point", "coordinates": [ -119.665351564243537, 34.422223961264834 ] } },
{ "type": "Feature", "properties": { "id": "8d047116-9bc4-4dac-93ea-28ca932d766a", "name": "Municipal Tennis and Pickleball Courts", "category": "tennis_court", "address": "1414 Park Pl" }, "geometry": { "type": "Point", "coordinates": [ -119.6654862, 34.4220333 ] } },
{ "type": "Feature", "properties": { "id": "706c6ea1-b1d7-46d6-a2c4-dcf764e85c5f", "name": "Santa Barbara Zoo", "category": "wildlife_sanctuary", "address": "500 Ninos Dr" }, "geometry": { "type": "Point", "coordinates": [ -119.6670582, 34.4204069 ] } },
{ "type": "Feature", "properties": { "id": "02ebd4fe-507a-4d37-9d30-c6c31e08223b", "name": "Santa Barbara Sunrise RV Park", "category": "rv_park", "address": "516 S Salinas St" }, "geometry": { "type": "Point", "coordinates": [ -119.6666334, 34.4217822 ] } },
{ "type": "Feature", "properties": { "id": "7ef6b25b-a42f-4939-a445-5963b6fa4506", "name": "Dreamscape Santa Barbara", "category": "landscaping", "address": "506 S Salinas St" }, "geometry": { "type": "Point", "coordinates": [ -119.6667484, 34.421958 ] } },
{ "type": "Feature", "properties": { "id": "b9124c63-3ae0-4338-8957-8e5d6be7f770", "name": "Mi Fiesta Market", "category": "liquor_store", "address": "410 S Salinas St" }, "geometry": { "type": "Point", "coordinates": [ -119.668043818142536, 34.422637452972282 ] } },
{ "type": "Feature", "properties": { "id": "d10421a1-d8ef-4430-ac94-353925543e14", "name": "American Silkscreen", "category": "advertising_agency", "address": "402 S Salinas St" }, "geometry": { "type": "Point", "coordinates": [ -119.668119480832033, 34.422802173995564 ] } },
{ "type": "Feature", "properties": { "id": "13d88295-8839-456d-b1cd-4a9862ea8a6f", "name": "Beachside Taxi SB", "category": "taxi_service", "address": "310 S Canada St" }, "geometry": { "type": "Point", "coordinates": [ -119.670425, 34.4225353 ] } },
{ "type": "Feature", "properties": { "id": "89eaca2b-12a9-4c52-b58b-0f0c3aacd570", "name": "Prestige Cleaning", "category": "home_cleaning", "address": "420 S Canada St" }, "geometry": { "type": "Point", "coordinates": [ -119.6688946, 34.4214945 ] } },
{ "type": "Feature", "properties": { "id": "f8287da4-de8e-41a4-b409-c113c8b16e44", "name": "Luis Landscape and Maintenance", "category": "gardener", "address": "1212 Punta Gorda St" }, "geometry": { "type": "Point", "coordinates": [ -119.6692851, 34.4212168 ] } },
{ "type": "Feature", "properties": { "id": "4c8bcaa4-22e8-47a6-bfa4-31bd18f22f36", "name": "Art's Market", "category": "convenience_store", "address": "1104 Cacique St" }, "geometry": { "type": "Point", "coordinates": [ -119.673838, 34.4219308 ] } },
{ "type": "Feature", "properties": { "id": "87da018e-64e3-4575-9335-85bdab02193a", "name": "Flamingo Mobile Home Park", "category": "mobile_home_park", "address": "1210 Cacique St" }, "geometry": { "type": "Point", "coordinates": [ -119.6727494, 34.4228877 ] } },
{ "type": "Feature", "properties": { "id": "81acea44-9bde-4923-a7a3-fb5d3f695f92", "name": "Santa Barbara Housekeeping", "category": "office_cleaning", "address": "112 S Canada St" }, "geometry": { "type": "Point", "coordinates": [ -119.672667503356934, 34.424071354978665 ] } },
{ "type": "Feature", "properties": { "id": "12c8c997-10b5-4bec-a60a-e40b7dec7fb8", "name": "Kennedy's Automotive", "category": "automotive_repair", "address": "205 S Salinas St" }, "geometry": { "type": "Point", "coordinates": [ -119.6704567, 34.4249237 ] } },
{ "type": "Feature", "properties": { "id": "ae3e67fc-0124-4abf-8d07-9ab79dec646b", "name": "Felix Jrs Tires", "category": "tire_dealer_and_repair", "address": "205 S Salinas St" }, "geometry": { "type": "Point", "coordinates": [ -119.6703514, 34.4249438 ] } },
{ "type": "Feature", "properties": { "id": "8ad28f47-168f-46b8-8c6d-b362478e522d", "name": "Fairway Market", "category": "grocery_store", "address": "128 S Salinas St" }, "geometry": { "type": "Point", "coordinates": [ -119.6711393, 34.4250695 ] } },
{ "type": "Feature", "properties": { "id": "c69ff3c6-06d8-4903-844b-2eeb7a2ceaae", "name": "Latino Beauty Salon", "category": "beauty_salon", "address": "130 S Salinas St" }, "geometry": { "type": "Point", "coordinates": [ -119.6710212, 34.425003 ] } },
{ "type": "Feature", "properties": { "id": "bd1ccc31-5c11-4ef9-89f2-f797e501a9ed", "name": "El Sitio", "category": "mexican_restaurant", "address": "138 S Salinas St" }, "geometry": { "type": "Point", "coordinates": [ -119.6710355, 34.4250127 ] } },
{ "type": "Feature", "properties": { "id": "f3e1c65a-af73-46cc-a7e8-644ccacb3590", "name": "Towers Cleaning", "category": "janitorial_services", "address": "112 S Canada St" }, "geometry": { "type": "Point", "coordinates": [ -119.67287, 34.42435 ] } },
{ "type": "Feature", "properties": { "id": "ae31cbf4-c9dd-4391-83e2-bad608d409bb", "name": "TLC Expert Auto Detail", "category": "auto_detailing", "address": "21 S Canada St" }, "geometry": { "type": "Point", "coordinates": [ -119.6735503, 34.4253269 ] } },
{ "type": "Feature", "properties": { "id": "886ffc44-5590-4eee-80c9-5e1e860408ee", "name": "Paul Crow - Motorcycle Sales", "category": "motorcycle_dealer", "address": "16 S Canada St" }, "geometry": { "type": "Point", "coordinates": [ -119.6736884, 34.4253678 ] } },
{ "type": "Feature", "properties": { "id": "1be682ea-0b07-4032-81b8-9c2dcf3168e5", "name": "Letty Mendozas House Cleaning Services", "category": "home_improvement_store", "address": "23 N Soledad St" }, "geometry": { "type": "Point", "coordinates": [ -119.67657, 34.42516 ] } },
{ "type": "Feature", "properties": { "id": "f61fa458-29e2-4347-8591-717bb8674692", "name": "Franklin Elementary School", "category": "elementary_school", "address": "1111 E Mason St" }, "geometry": { "type": "Point", "coordinates": [ -119.6781406, 34.4252058 ] } },
{ "type": "Feature", "properties": { "id": "7cdbd98e-185a-4524-87fc-554c5e7eb12a", "name": "Cesar Chavez Elementary School", "category": "elementary_school", "address": "1102 E Yanonali St" }, "geometry": { "type": "Point", "coordinates": [ -119.6791212, 34.4256166 ] } },
{ "type": "Feature", "properties": { "id": "01340890-e797-4ec5-9226-6e12c7873dc7", "name": "Santa Barbara School District", "category": "elementary_school", "address": "1102 E Yanonali St" }, "geometry": { "type": "Point", "coordinates": [ -119.679207900947063, 34.425651827936356 ] } },
{ "type": "Feature", "properties": { "id": "31e4711a-c691-4239-aab0-d96c17065e31", "name": "Adelante Charter School", "category": "education", "address": "1102 E Yanonali St" }, "geometry": { "type": "Point", "coordinates": [ -119.678688713827, 34.424834839714023 ] } },
{ "type": "Feature", "properties": { "id": "a452d00e-9776-448c-b1af-516c068bb452", "name": "The Adelante Charter School", "category": "elementary_school", "address": "1102 E Yanonali St" }, "geometry": { "type": "Point", "coordinates": [ -119.6788054, 34.4245471 ] } },
{ "type": "Feature", "properties": { "id": "8b128627-5203-43f1-b595-cb2c8d557773", "name": "New Beginning Community Church", "category": "pentecostal_church", "address": "601 E Montecito St" }, "geometry": { "type": "Point", "coordinates": [ -119.678108, 34.4243325 ] } },
{ "type": "Feature", "properties": { "id": "e093449b-89ac-4a80-b56c-6ae0df754034", "name": "Second Baptist Church", "category": "church_cathedral", "address": "1032 E Mason St" }, "geometry": { "type": "Point", "coordinates": [ -119.6780527, 34.4243679 ] } },
{ "type": "Feature", "properties": { "id": "67adc239-2d43-41e3-acd3-85fb7b24130a", "name": "Sunflower Park", "category": "park", "address": "1124 E Mason St" }, "geometry": { "type": "Point", "coordinates": [ -119.677283, 34.424967 ] } },
{ "type": "Feature", "properties": { "id": "d7ba7359-eff9-4598-823f-ffb834d65980", "name": "Beth McDonald Consulting", "category": "professional_services", "address": "22 N Voluntario St" }, "geometry": { "type": "Point", "coordinates": [ -119.6773473, 34.4244061 ] } },
{ "type": "Feature", "properties": { "id": "1f7724b0-595a-4088-a2ea-ca777678d08c", "name": "Integral Martial Arts", "category": "sports_and_recreation_venue", "address": "1032 E Mason St" },